"Facility Name","Facility Address","Latitude","Longitude","NAICS Code","NAICS Description","Pollutant","Source Type","Emissions in Tons","Year"
"SAFEWAY INC","1801 W 11TH ST","37.7410","-121.453","447110","Gasoline Stations with Convenience Stores","Volatile Organic Compounds","Miscellaneous","5.145296","2008"
"ADESA CALIFORNIA LLC/ATTN:  ENVIRO DEPT","18501 STANFORD ROAD","37.7286","-121.537","441120","Used Car Dealers","Volatile Organic Compounds","Miscellaneous","5.290528306","2008"
"Fallbrook Community Air","Unknown","33.3542","-117.251","48811","Airport Operations","Carbon Monoxide","Airport","86.6936","2008"
"Borrego Valley","Unknown","33.2590","-116.321","48811","Airport Operations","Carbon Monoxide","Airport","57.987275","2008"
"Mc Clellan-Palomar","Unknown","33.1283","-117.280","48811","Airport Operations","Nitrogen Oxides","Airport","10.251191198","2008"
"Mc Clellan-Palomar","Unknown","33.1283","-117.280","48811","Airport Operations","Volatile Organic Compounds","Airport","12.270518135","2008"
"Mc Clellan-Palomar","Unknown","33.1283","-117.280","48811","Airport Operations","PM10","Airport","12.3183737089","2008"
"Mc Clellan-Palomar","Unknown","33.1283","-117.280","48811","Airport Operations","Carbon Monoxide","Airport","573.547489936","2008"
"DIXIE CONSUMER PRODUCTS","35275 S WELTY RD","37.6308","-121.288","322215","Nonfolding Sanitary Food Container Manufacturing","Volatile Organic Compounds","Miscellaneous","5.0651194","2008"
"QUEST INDUSTRIES LLC","2518 BOEING WAY","37.9106","-121.237","323112","Commercial Flexographic Printing","Volatile Organic Compounds","Miscellaneous","6.5295731316","2008"
"LODI GAS STORAGE LLC","23265 HIGHWAY 99 N W FRONTAGE","38.1979","-121.263","486210","Pipeline Transportation of Natural Gas","Carbon Monoxide","Miscellaneous","10.594101","2008"
"MOBIL ON THE RUN SERVICE STATION","10555        SCRIPPS POWAY PY","32.9370","-117.101","447110","Gasoline Stations with Convenience Stores","Volatile Organic Compounds","Miscellaneous","5.58924","2008"
"San Luis County Regiona","Unknown","35.2367","-120.650","48811","Airport Operations","PM10","Airport","5.6188087","2008"
"San Luis County Regiona","Unknown","35.2367","-120.650","48811","Airport Operations","Volatile Organic Compounds","Airport","9.70775797","2008"
"San Luis County Regiona","Unknown","35.2367","-120.650","48811","Airport Operations","Nitrogen Oxides","Airport","17.3290962","2008"
"San Luis County Regiona","Unknown","35.2367","-120.650","48811","Airport Operations","Carbon Monoxide","Airport","291.2399452","2008"
"Paso Robles Muni","Unknown","35.6729","-120.627","48811","Airport Operations","Carbon Monoxide","Airport","91.98398626475","2008"
"MELROSE LLC","1501         MELROSE DR","33.2250","-117.264","447110","Gasoline Stations with Convenience Stores","Volatile Organic Compounds","Miscellaneous","6.41617","2008"
"LA MESA SHELL","4925         SPRING ST","32.7680","-117.022","447110","Gasoline Stations with Convenience Stores","Volatile Organic Compounds","Miscellaneous","5.11102","2008"
"COUNTY OF SAN LUIS OBISPO-OCEANO AIRPORT","561 AIR PARK DR","35.1024","-120.625","488111","Air Traffic Control","Carbon Monoxide","Airport","26.08266","2008"
"SAN JOAQUIN CO. PUBLIC WORKS","14750 E HARNEY LN","38.1020","-121.137","562211","Hazardous Waste Treatment and Disposal","Carbon Monoxide","Miscellaneous","9.130282","2008"
"D&H TRUCK EQUIPMENT","7451         TRADE ST","32.8890","-117.161","811121","Automotive Body, Paint, and Interior Repair and Maintenance","Volatile Organic Compounds","Miscellaneous","6.33244","2008"
"DANA CORPORATION, PARISH DIV.","1550 INDUSTRIAL DRIVE","37.9116","-121.256","336211","Motor Vehicle Body Manufacturing","Volatile Organic Compounds","Miscellaneous","5.2383823","2008"
"MID CAL BODY SHOP","1111 N. UNION STREET","37.9667","-121.280","811121","Automotive Body, Paint, and Interior Repair and Maintenance","Volatile Organic Compounds","Miscellaneous","9.92707975","2008"
"RME INC - WOODBRIDGE WINERY","5950 E WOODBRIDGE RD","38.1600","-121.245","312130","Wineries","Volatile Organic Compounds","Miscellaneous","48.690841175","2008"
"USN EXCHANGE MURPHY CANYON GAS STAT","3401         SANTO RD","32.8060","-117.105","928110","National Security","Volatile Organic Compounds","Miscellaneous","5.98776","2008"
"Tracy Muni","Unknown","37.6891","-121.442","48811","Airport Operations","Carbon Monoxide","Airport","163.769022","2008"
"Stockton Metropolitan","Unknown","37.9011","-121.252","48811","Airport Operations","Volatile Organic Compounds","Airport","5.3804705774","2008"
"Stockton Metropolitan","Unknown","37.9011","-121.252","48811","Airport Operations","Nitrogen Oxides","Airport","7.089739674","2008"
"Stockton Metropolitan","Unknown","37.9011","-121.252","48811","Airport Operations","Carbon Monoxide","Airport","200.97252229","2008"
"ALPINE PACKING CO","9900 LOWER SACRAMENTO RD","38.0428","-121.323","311611","Animal (except Poultry) Slaughtering","PM10","Miscellaneous","8.39306225","2008"
"ALPINE PACKING CO","9900 LOWER SACRAMENTO RD","38.0428","-121.323","311611","Animal (except Poultry) Slaughtering","Volatile Organic Compounds","Miscellaneous","9.7963511","2008"
"ALPINE PACKING CO","9900 LOWER SACRAMENTO RD","38.0428","-121.323","311611","Animal (except Poultry) Slaughtering","Carbon Monoxide","Miscellaneous","16.78685225","2008"
"MOFFIT RICE DRYER","25744 E. LONE TREE ROAD","37.8277","-120.995","311119","Other Animal Food Manufacturing","PM10","Miscellaneous","6.343958","2008"
"PACIFIC GAS & ELECTRIC CO.","MCDONALD ISLAND","37.8452","-121.427","221210","Natural Gas Distribution","Volatile Organic Compounds","Miscellaneous","8.960164311","2008"
"PACIFIC GAS & ELECTRIC CO.","MCDONALD ISLAND","37.8452","-121.427","221210","Natural Gas Distribution","Nitrogen Oxides","Miscellaneous","33.460425","2008"
"PACIFIC GAS & ELECTRIC CO.","MCDONALD ISLAND","37.8452","-121.427","221210","Natural Gas Distribution","Carbon Monoxide","Miscellaneous","46.9798135","2008"
"BASALITE CONCRETE PRODUCTS LLC","11888 W LINNE RD","37.6959","-121.453","327320","Ready-Mix Concrete Manufacturing","PM10","Miscellaneous","6.70506345","2008"
"HUBBARD FEEDS, INC.","2422 S CALIFORNIA ST","37.9271","-121.277","311119","Other Animal Food Manufacturing","Volatile Organic Compounds","Miscellaneous","5.2517","2008"
"Lodi","Unknown","38.2024","-121.268","48811","Airport Operations","Carbon Monoxide","Airport","76.59321","2008"
"Gillespie Field","Unknown","32.8277","-116.982","48811","Airport Operations","Nitrogen Oxides","Airport","7.5140581955","2008"
"Gillespie Field","Unknown","32.8277","-116.982","48811","Airport Operations","Volatile Organic Compounds","Airport","12.4719238739","2008"
"Gillespie Field","Unknown","32.8277","-116.982","48811","Airport Operations","PM10","Airport","15.311076812128","2008"
"Gillespie Field","Unknown","32.8277","-116.982","48811","Airport Operations","Carbon Monoxide","Airport","758.886493294","2008"
"Brown Field Muni","Unknown","32.5723","-116.994","48811","Airport Operations","PM10","Airport","7.81424698023","2008"
"Brown Field Muni","Unknown","32.5723","-116.994","48811","Airport Operations","Volatile Organic Compounds","Airport","9.6860390423","2008"
"Brown Field Muni","Unknown","32.5723","-116.994","48811","Airport Operations","Carbon Monoxide","Airport","355.703666655","2008"
"San Diego Intl-Lindberg","Unknown","32.7359","-117.205","48811","Airport Operations","PM2.5 Primary (Filt + Cond","Airport","25.4933861259","2008"
"San Diego Intl-Lindberg","Unknown","32.7359","-117.205","48811","Airport Operations","PM10","Airport","28.9659756259","2008"
"San Diego Intl-Lindberg","Unknown","32.7359","-117.205","48811","Airport Operations","Sulfur Dioxide","Airport","120.4356785834","2008"
"San Diego Intl-Lindberg","Unknown","32.7359","-117.205","48811","Airport Operations","Volatile Organic Compounds","Airport","166.24529803981","2008"
"San Diego Intl-Lindberg","Unknown","32.7359","-117.205","48811","Airport Operations","Nitrogen Oxides","Airport","1304.442443824","2008"
"San Diego Intl-Lindberg","Unknown","32.7359","-117.205","48811","Airport Operations","Carbon Monoxide","Airport","2154.9030846908","2008"
"Ramona","Unknown","33.0389","-116.914","48811","Airport Operations","PM10","Airport","8.13681918","2008"
"Ramona","Unknown","33.0389","-116.914","48811","Airport Operations","Volatile Organic Compounds","Airport","9.246818438","2008"
"Ramona","Unknown","33.0389","-116.914","48811","Airport Operations","Carbon Monoxide","Airport","389.3013869","2008"
"Oceanside Muni","Unknown","33.2180","-117.352","48811","Airport Operations","Carbon Monoxide","Airport","47.336","2008"
"Montgomery Field","Unknown","32.8150","-117.146","48811","Airport Operations","Volatile Organic Compounds","Airport","10.2314964","2008"
"Montgomery Field","Unknown","32.8150","-117.146","48811","Airport Operations","PM10","Airport","14.288085","2008"
"Montgomery Field","Unknown","32.8150","-117.146","48811","Airport Operations","Carbon Monoxide","Airport","704.385936","2008"
"CANANDAIGUA WINE COMPANY INC","4614 W TURNER RD","38.1457","-121.373","312130","Wineries","Volatile Organic Compounds","Miscellaneous","11.1901106","2008"
"THE WINE GROUP","1777 METZ ROAD","36.4171","-121.279","312130","Wineries","Volatile Organic Compounds","Miscellaneous","10.11551","2008"
"Sacramento Internationa","Unknown","38.6837","-121.602","48811","Airport Operations","PM2.5 Primary (Filt + Cond","Airport","19.2730268236","2008"
"Sacramento Internationa","Unknown","38.6837","-121.602","48811","Airport Operations","PM10","Airport","21.8510946236","2008"
"Sacramento Internationa","Unknown","38.6837","-121.602","48811","Airport Operations","Sulfur Dioxide","Airport","74.9495739994","2008"
"Sacramento Internationa","Unknown","38.6837","-121.602","48811","Airport Operations","Volatile Organic Compounds","Airport","125.6363120958","2008"
"Sacramento Internationa","Unknown","38.6837","-121.602","48811","Airport Operations","Nitrogen Oxides","Airport","792.649703361","2008"
"Sacramento Internationa","Unknown","38.6837","-121.602","48811","Airport Operations","Carbon Monoxide","Airport","1409.748720599","2008"
"Sacramento Executive","Unknown","38.5058","-121.502","48811","Airport Operations","PM10","Airport","6.208997","2008"
"Sacramento Executive","Unknown","38.5058","-121.502","48811","Airport Operations","Volatile Organic Compounds","Airport","7.0550346","2008"
"Sacramento Executive","Unknown","38.5058","-121.502","48811","Airport Operations","Carbon Monoxide","Airport","273.8067","2008"
"Rancho Murieta","Unknown","38.4888","-121.102","48811","Airport Operations","Carbon Monoxide","Airport","67.891213","2008"
"Rio Linda","Unknown","38.6760","-121.446","48811","Airport Operations","Carbon Monoxide","Airport","134.8149","2008"
"Franklin Field","Unknown","38.3049","-121.430","48811","Airport Operations","Carbon Monoxide","Airport","89.4359","2008"
"Sacramento Mather","Unknown","38.5539","-121.298","48811","Airport Operations","Sulfur Dioxide","Airport","6.4085802724","2008"
"Sacramento Mather","Unknown","38.5539","-121.298","48811","Airport Operations","PM10","Airport","8.4525471216","2008"
"Sacramento Mather","Unknown","38.5539","-121.298","48811","Airport Operations","Volatile Organic Compounds","Airport","20.7414749553","2008"
"Sacramento Mather","Unknown","38.5539","-121.298","48811","Airport Operations","Nitrogen Oxides","Airport","66.96089984","2008"
"Sacramento Mather","Unknown","38.5539","-121.298","48811","Airport Operations","Carbon Monoxide","Airport","354.232353388","2008"
"Mc Clellan Airfield","Unknown","38.6676","-121.401","48811","Airport Operations","Carbon Monoxide","Airport","42.53498614","2008"
"APRO #3","102          MISSION W","33.1300","-117.086","447110","Gasoline Stations with Convenience Stores","Volatile Organic Compounds","Miscellaneous","7.79107","2008"
"BP WEST COAST PROD.,ARCO COLTON","2395 RIVERSIDE AVE","34.0600","-117.361","424710","Petroleum Bulk Stations and Terminals","Volatile Organic Compounds","Miscellaneous","19.729467136","2008"
"SFPP, L.P.","2359 RIVERSIDE AVE","34.0589","-117.371","486110","Pipeline Transportation of Crude Oil","Nitrogen Oxides","Miscellaneous","11.22","2008"
"SFPP, L.P.","2359 RIVERSIDE AVE","34.0589","-117.371","486110","Pipeline Transportation of Crude Oil","Volatile Organic Compounds","Miscellaneous","79.651016332","2008"
"ROSS-DOYLE INC","VARIOUS LOCATIONS IN SCAQMD","34.1110","-117.380","423310","Lumber, Plywood, Millwork, and Wood Panel Merchant Wholesalers","Volatile Organic Compounds","Miscellaneous","11.77725622","2008"
"ARCO AM PM","133          8TH ST W","32.6763","-117.105","447110","Gasoline Stations with Convenience Stores","Volatile Organic Compounds","Miscellaneous","8.46855","2008"
"LARKSPUR ENERGY FACILITY","9355         OTAY MESA RD","32.5680","-116.944","221111","Hydroelectric Power Generation","PM10","Miscellaneous","7.04","2008"
"LARKSPUR ENERGY FACILITY","9355         OTAY MESA RD","32.5680","-116.944","221111","Hydroelectric Power Generation","PM2.5 Primary (Filt + Cond","Miscellaneous","7.04","2008"
"LARKSPUR ENERGY FACILITY","9355         OTAY MESA RD","32.5680","-116.944","221111","Hydroelectric Power Generation","Carbon Monoxide","Miscellaneous","27.6","2008"
"TOYOTA SAN DIEGO","5910         MISSION GORGE RD","32.7820","-117.100","441110","New Car Dealers","Volatile Organic Compounds","Miscellaneous","5.34454","2008"
"SCRIPPS ARCO AM PM","12033        SCRIPPS SUMMIT DR","32.9380","-117.101","447110","Gasoline Stations with Convenience Stores","Volatile Organic Compounds","Miscellaneous","5.65898","2008"
"Bermuda Dunes","Unknown","33.7484","-116.275","48811","Airport Operations","Carbon Monoxide","Airport","96.53586","2008"
"Desert Resorts Regional","Unknown","33.6279","-116.160","48811","Airport Operations","Carbon Monoxide","Airport","195.548864","2008"
"TELCO FOOD PRODUCTS","2111 W VALLEY BLVD","34.0706","-117.366","311812","Commercial Bakeries","Volatile Organic Compounds","Miscellaneous","6.6105","2008"
"CHINO BASIN DESALTER AUTHORITY","6905 KIMBALL AVE","33.9686","-117.654","221310","Water Supply and Irrigation Systems","Carbon Monoxide","Miscellaneous","21.64","2008"
"HINO MOTORS MANUFACTURING USA, INC","290 S MILLIKEN AVE","34.0630","-117.558","336399","All Other Motor Vehicle Parts Manufacturing","Volatile Organic Compounds","Miscellaneous","6.7156","2008"
"EI COLTON, LLC","2040 AGUA MANSA RD","34.0430","-117.362","221119","Other Electric Power Generation","Ammonia","Miscellaneous","5.20172","2008"
"EI COLTON, LLC","2040 AGUA MANSA RD","34.0430","-117.362","221119","Other Electric Power Generation","Nitrogen Oxides","Miscellaneous","8.27","2008"
"NM MID VALLEY GENCO LLC","30 BOHNERT RD","34.1000","-117.373","562213","Solid Waste Combustors and Incinerators","Nitrogen Oxides","Electricity Generation via Combustion","11.28","2008"
"NM MID VALLEY GENCO LLC","30 BOHNERT RD","34.1000","-117.373","562213","Solid Waste Combustors and Incinerators","Carbon Monoxide","Electricity Generation via Combustion","44.58","2008"
"Blythe","Unknown","33.6192","-114.717","48811","Airport Operations","Carbon Monoxide","Airport","63.54898","2008"
"CANNON SAFE, INC.","216 S 2ND AVE","34.0973","-117.264","332999","All Other Miscellaneous Fabricated Metal Product Manufacturing","Volatile Organic Compounds","Miscellaneous","5.702318","2008"
"ROBERTSON'S READY MIX","2601 N ALDER AVE","34.1378","-117.420","327320","Ready-Mix Concrete Manufacturing","PM2.5 Primary (Filt + Cond","Miscellaneous","14.14455","2008"
"ROBERTSON'S READY MIX","2601 N ALDER AVE","34.1378","-117.420","327320","Ready-Mix Concrete Manufacturing","PM10","Miscellaneous","22.7004","2008"
"JENSEN PRECAST","14221 SAN BERNARDINO AVE","34.0772","-117.497","327332","Concrete Pipe Manufacturing","Volatile Organic Compounds","Miscellaneous","13.3219947356","2008"
"ARROWHEAD REGIONAL MEDICAL CTR","400 N PEPPER AVE","34.0719","-117.354","622110","General Medical and Surgical Hospitals","Nitrogen Oxides","Miscellaneous","7.64","2008"
"ARROWHEAD REGIONAL MEDICAL CTR","400 N PEPPER AVE","34.0719","-117.354","622110","General Medical and Surgical Hospitals","Carbon Monoxide","Miscellaneous","11.14","2008"
"EQUILON ENTER. LLC, SHELL OIL PROD. U S","2307 RIVERSIDE AVE","34.0609","-117.371","424720","Petroleum and Petroleum Products Merchant Wholesalers (except Bulk Stations and Terminals)","Volatile Organic Compounds","Miscellaneous","10.94072676","2008"
"GRANITE CONSTRUCTION COMPANY","38-155 MONROE ST","33.7395","-116.235","324121","Asphalt Paving Mixture and Block Manufacturing","PM10","Miscellaneous","9.31691722","2008"
"WILDFLOWER ENERGY LP/IINDIGO  GENERATION","63500 19TH AVE","33.9100","-116.553","221112","Fossil Fuel Electric Power Generation","Nitrogen Oxides","Electricity Generation via Combustion","13.37","2008"
"ROBERTSON'S READY MIX, L.P.","13990 APACHE TRAIL","33.9221","-116.807","327320","Ready-Mix Concrete Manufacturing","PM2.5 Primary (Filt + Cond","Miscellaneous","13.96542131","2008"
"ROBERTSON'S READY MIX, L.P.","13990 APACHE TRAIL","33.9221","-116.807","327320","Ready-Mix Concrete Manufacturing","PM10","Miscellaneous","21.96926711","2008"
"VORTEX WHIRLPOOL SYSTEMS, INC","275 RIDER ST","33.8302","-117.233","238990","All Other Specialty Trade Contractors","PM2.5 Primary (Filt + Cond","Miscellaneous","5.00425","2008"
"VORTEX WHIRLPOOL SYSTEMS, INC","275 RIDER ST","33.8302","-117.233","238990","All Other Specialty Trade Contractors","PM10","Miscellaneous","5.1936","2008"
"VORTEX WHIRLPOOL SYSTEMS, INC","275 RIDER ST","33.8302","-117.233","238990","All Other Specialty Trade Contractors","Volatile Organic Compounds","Miscellaneous","17.38056575","2008"
"Southern California Log","Unknown","34.5955","-117.383","48811","Airport Operations","PM10","Airport","5.4993674739","2008"
"Southern California Log","Unknown","34.5955","-117.383","48811","Airport Operations","Nitrogen Oxides","Airport","8.953549407","2008"
"Southern California Log","Unknown","34.5955","-117.383","48811","Airport Operations","Volatile Organic Compounds","Airport","9.99072951521","2008"
"Southern California Log","Unknown","34.5955","-117.383","48811","Airport Operations","Carbon Monoxide","Airport","244.0863095788","2008"
"Twentynine Palms","Unknown","34.1321","-115.946","48811","Airport Operations","Carbon Monoxide","Airport","47.26205","2008"
"San Bernardino Internat","Unknown","34.0954","-117.235","48811","Airport Operations","Carbon Monoxide","Airport","17.925484","2008"
"HEMET MFG CO INC, GENESIS CONSTRUCTION","VARIOUS LOCATIONS IN SCAQMD","33.7020","-116.978","2213","Water, Sewage and Other Systems","Carbon Monoxide","Miscellaneous","7.89","2008"
"SYNAGRO COMPOSTING CO. OF CALIFORNIA INC","10490 DAWSON CANYON RD","33.7816","-117.488","562219","Other Nonhazardous Waste Treatment and Disposal","Nitrogen Oxides","Miscellaneous","5.38","2008"
"SILVER LAKE MINE","T15N R6E, SEC 14","35.2348","-116.182","212210","Iron Ore Mining","PM2.5 Primary (Filt + Cond","Miscellaneous","37.4934","2008"
"SILVER LAKE MINE","T15N R6E, SEC 14","35.2348","-116.182","212210","Iron Ore Mining","PM10","Miscellaneous","37.9224","2008"
"GAS DEPOT THE","495          MEADOWBROOK DR S","32.7080","-117.034","447110","Gasoline Stations with Convenience Stores","Volatile Organic Compounds","Miscellaneous","6.95417","2008"
"Hesperia","Unknown","34.3772","-117.316","48811","Airport Operations","Carbon Monoxide","Airport","15.64821","2008"
"Needles","Unknown","34.7662","-114.623","48811","Airport Operations","Carbon Monoxide","Airport","26.2475","2008"
"Barstow-Daggett","Unknown","34.8513","-116.798","48811","Airport Operations","Volatile Organic Compounds","Airport","7.255134","2008"
"Barstow-Daggett","Unknown","34.8513","-116.798","48811","Airport Operations","Carbon Monoxide","Airport","172.8307","2008"
"Apple Valley","Unknown","34.5753","-117.186","48811","Airport Operations","Carbon Monoxide","Airport","93.7411","2008"
"Chemehuevi Valley","Unknown","34.5275","-114.431","48811","Airport Operations","Carbon Monoxide","Airport","10.43217","2008"
"DUFFY ELECTRIC BOAT CO.","17260 MUSKRAT AVE","34.5623","-117.451","336612","Boat Building","Volatile Organic Compounds","Miscellaneous","6.392","2008"
"HESPERIA SANITARY LANDFILL","5500 HESPERIA DUMP ROAD","33.0842","-115.681","562212","Solid Waste Landfill","PM10","Miscellaneous","8.657307","2008"
"Hollister Muni","Unknown","36.8934","-121.410","48811","Airport Operations","Carbon Monoxide","Airport","144.8634","2008"
"ARCO","810          TAMARACK AV","33.1520","-117.338","447110","Gasoline Stations with Convenience Stores","Volatile Organic Compounds","Miscellaneous","5.0612","2008"
"BARSTOW TERMINAL","34277 DAGGETT-YERMO ROAD","34.8661","-116.881","493110","General Warehousing and Storage","Volatile Organic Compounds","Miscellaneous","13.4524874461","2008"
"WESTMART","4990         AVENIDA ENCINAS","33.1330","-117.330","447110","Gasoline Stations with Convenience Stores","Volatile Organic Compounds","Miscellaneous","5.93795","2008"
"MERCED SUN-STAR","3033 N G STREET","37.3005","-120.481","511110","Newspaper Publishers","Volatile Organic Compounds","Miscellaneous","5.98204","2008"
"HYDROSEAL POLYMERS, INC","12151 MADERA WAY","33.8974","-117.502","325211","Plastics Material and Resin Manufacturing","Volatile Organic Compounds","Miscellaneous","7.86","2008"
"R. J. NOBLE COMPANY","25225 MAITRI RD","33.7454","-117.479","324121","Asphalt Paving Mixture and Block Manufacturing","Carbon Monoxide","Miscellaneous","12.78","2008"
"U S A WASTE OF CAL(EL SOBRANTE LANDFILL)","10910 DAWSON CANYON RD","33.7824","-117.469","562212","Solid Waste Landfill","Volatile Organic Compounds","Miscellaneous","13.970152264","2008"
"U S A WASTE OF CAL(EL SOBRANTE LANDFILL)","10910 DAWSON CANYON RD","33.7824","-117.469","562212","Solid Waste Landfill","Nitrogen Oxides","Miscellaneous","15.32","2008"
"U S A WASTE OF CAL(EL SOBRANTE LANDFILL)","10910 DAWSON CANYON RD","33.7824","-117.469","562212","Solid Waste Landfill","Carbon Monoxide","Miscellaneous","63.84","2008"
"MARUCHAN INC","15800 LAGUNA CANYON RD","33.6633","-117.766","311823","Dry Pasta Manufacturing","Carbon Monoxide","Miscellaneous","11.29","2008"
"Truckee-Tahoe","Unknown","39.3200","-120.140","48811","Airport Operations","Carbon Monoxide","Airport","91.6879632164","2008"
"Nevada County Air Park","Unknown","39.2240","-121.003","48811","Airport Operations","Carbon Monoxide","Airport","66.778573","2008"
"RALPHS GROCERY CO","1500 EASTRIDGE AVE.","33.9313","-117.304","445110","Supermarkets and Other Grocery (except Convenience) Stores","Carbon Monoxide","Miscellaneous","11.01","2008"
"RALPHS GROCERY CO","1500 EASTRIDGE AVE.","33.9313","-117.304","445110","Supermarkets and Other Grocery (except Convenience) Stores","Nitrogen Oxides","Miscellaneous","45.79","2008"
"CITY OF ANAHEIM/COMB TURBINE GEN STATION","1144 N KRAEMER BLVD","33.8528","-117.859","221119","Other Electric Power Generation","Nitrogen Oxides","Electricity Generation via Combustion","17.08","2008"
"MARCEL ELECTRONICS","140-240 W BRISTOL LN","33.8268","-117.855","334412","Bare Printed Circuit Board Manufacturing","Volatile Organic Compounds","Miscellaneous","9.0895134393","2008"
"INGOMAR PACKING COMPANY","9950 S INGOMAR GRADE","37.0566","-120.849","115114","Postharvest Crop Activities (except Cotton Ginning)","Nitrogen Oxides","Miscellaneous","5.892884","2008"
"INGOMAR PACKING COMPANY","9950 S INGOMAR GRADE","37.0566","-120.849","115114","Postharvest Crop Activities (except Cotton Ginning)","Carbon Monoxide","Miscellaneous","23.32099","2008"
"FINELINE INDUSTRIES, INC.","455 GROGAN AVENUE","37.2945","-120.520","336612","Boat Building","Volatile Organic Compounds","Miscellaneous","29.6164","2008"
"Rogers Field","Unknown","40.2824","-121.241","48811","Airport Operations","Carbon Monoxide","Airport","40.624673","2008"
"Nervino","Unknown","39.8207","-120.354","48811","Airport Operations","Carbon Monoxide","Airport","41.7287","2008"
"SANTA MARGARITA WATER DIST","28793 ORTEGA HWY","33.5173","-117.630","211111","Crude Petroleum and Natural Gas Extraction","Ammonia","Miscellaneous","21.177905","2008"
"O C WASTE & RECYCLING","1942 N VALENCIA AVE","33.9384","-117.835","562212","Solid Waste Landfill","Sulfur Dioxide","Miscellaneous","7.58438925","2008"
"O C WASTE & RECYCLING","1942 N VALENCIA AVE","33.9384","-117.835","562212","Solid Waste Landfill","Carbon Monoxide","Miscellaneous","24.383923","2008"
"O C WASTE & RECYCLING","1942 N VALENCIA AVE","33.9384","-117.835","562212","Solid Waste Landfill","Nitrogen Oxides","Miscellaneous","30.656375","2008"
"Napa County","Unknown","38.2088","-122.289","48811","Airport Operations","PM10","Airport","7.577543631355","2008"
"Napa County","Unknown","38.2088","-122.289","48811","Airport Operations","Volatile Organic Compounds","Airport","8.52468976681","2008"
"Napa County","Unknown","38.2088","-122.289","48811","Airport Operations","Carbon Monoxide","Airport","341.060325132","2008"
"Angwin-Parrett Field","Unknown","38.5785","-122.435","48811","Airport Operations","Carbon Monoxide","Airport","31.55733","2008"
"Gansner Field","Unknown","39.9438","-120.947","48811","Airport Operations","Carbon Monoxide","Airport","34.148493","2008"
"Lincoln Regional/Karl H","Unknown","38.9171","-121.354","48811","Airport Operations","Carbon Monoxide","Airport","170.62781","2008"
"Auburn Muni","Unknown","38.9548","-121.082","48811","Airport Operations","Carbon Monoxide","Airport","158.242876","2008"
"Ukiah Muni","Unknown","39.1260","-123.201","48811","Airport Operations","Carbon Monoxide","Airport","102.96232531","2008"
"Boonville","Unknown","39.0127","-123.383","48811","Airport Operations","Carbon Monoxide","Airport","11.15339","2008"
"Little River","Unknown","39.2620","-123.754","48811","Airport Operations","Carbon Monoxide","Airport","16.5210923","2008"
"Ells Field-Willits Muni","Unknown","39.4513","-123.372","48811","Airport Operations","Carbon Monoxide","Airport","12.95687","2008"
"Round Valley","Unknown","39.7902","-123.266","48811","Airport Operations","Carbon Monoxide","Airport","18.508279","2008"
"Mariposa-Yosemite","Unknown","37.5108","-120.042","48811","Airport Operations","Carbon Monoxide","Airport","82.53872","2008"
"Salinas Muni","Unknown","36.6626","-121.619","48811","Airport Operations","Volatile Organic Compounds","Airport","5.55946276","2008"
"Salinas Muni","Unknown","36.6626","-121.619","48811","Airport Operations","Carbon Monoxide","Airport","229.30014","2008"
"Marina Municipal","Unknown","36.6819","-121.762","48811","Airport Operations","Carbon Monoxide","Airport","113.4383","2008"
"Monterey Peninsula","Unknown","36.5903","-121.857","48811","Airport Operations","PM10","Airport","5.6490067164","2008"
"Monterey Peninsula","Unknown","36.5903","-121.857","48811","Airport Operations","Volatile Organic Compounds","Airport","11.2328654951","2008"
"Monterey Peninsula","Unknown","36.5903","-121.857","48811","Airport Operations","Nitrogen Oxides","Airport","27.925743774","2008"
"Monterey Peninsula","Unknown","36.5903","-121.857","48811","Airport Operations","Carbon Monoxide","Airport","260.915089033","2008"
"Mesa Del Rey","Unknown","36.2280","-121.122","48811","Airport Operations","Carbon Monoxide","Airport","8.39962","2008"
"Gnoss Field","Unknown","38.1435","-122.557","48811","Airport Operations","Volatile Organic Compounds","Airport","5.61920244","2008"
"Gnoss Field","Unknown","38.1435","-122.557","48811","Airport Operations","PM10","Airport","7.6226617","2008"
"Gnoss Field","Unknown","38.1435","-122.557","48811","Airport Operations","Carbon Monoxide","Airport","377.472843","2008"
"SADDLEBACK COMMUNITY COLLEGE DISTRICT","28000 MARGUERITE PKY","33.5535","-117.671","611210","Junior Colleges","Nitrogen Oxides","Miscellaneous","6.23182","2008"
"SADDLEBACK COMMUNITY COLLEGE DISTRICT","28000 MARGUERITE PKY","33.5535","-117.671","611210","Junior Colleges","Carbon Monoxide","Miscellaneous","26.85388","2008"
"Bryant Field","Unknown","38.2624","-119.226","48811","Airport Operations","Carbon Monoxide","Airport","8.89356","2008"
"Lee Vining","Unknown","37.9583","-119.107","48811","Airport Operations","Carbon Monoxide","Airport","8.25831","2008"
"Mammoth Yosemite","Unknown","37.6241","-118.838","48811","Airport Operations","Carbon Monoxide","Airport","33.62395153","2008"
"YORBA LINDA WATER DISTRICT","52521/2 HIGHLAND","33.8838","-117.822","221310","Water Supply and Irrigation Systems","Nitrogen Oxides","Miscellaneous","8.13","2008"
"YORBA LINDA WATER DISTRICT","52521/2 HIGHLAND","33.8838","-117.822","221310","Water Supply and Irrigation Systems","Carbon Monoxide","Miscellaneous","13.69","2008"
"Tulelake Muni","Unknown","41.8874","-121.359","48811","Airport Operations","Carbon Monoxide","Airport","32.530944","2008"
"Cedarville","Unknown","41.5527","-120.166","48811","Airport Operations","Carbon Monoxide","Airport","11.936263","2008"
"Alturas Muni","Unknown","41.4830","-120.565","48811","Airport Operations","Carbon Monoxide","Airport","81.46437","2008"
"Turlock Muni","Unknown","37.4874","-120.697","48811","Airport Operations","Carbon Monoxide","Airport","27.12366","2008"
"Castle","Unknown","37.3805","-120.568","48811","Airport Operations","Nitrogen Oxides","Airport","5.187463785","2008"
"Castle","Unknown","37.3805","-120.568","48811","Airport Operations","PM10","Airport","8.115153055","2008"
"Castle","Unknown","37.3805","-120.568","48811","Airport Operations","Volatile Organic Compounds","Airport","9.3798122528","2008"
"Castle","Unknown","37.3805","-120.568","48811","Airport Operations","Carbon Monoxide","Airport","385.61049922","2008"
"Merced Municipal/Macrea","Unknown","37.2847","-120.514","48811","Airport Operations","PM10","Airport","5.5173189022","2008"
"Merced Municipal/Macrea","Unknown","37.2847","-120.514","48811","Airport Operations","Volatile Organic Compounds","Airport","13.63811943","2008"
"Merced Municipal/Macrea","Unknown","37.2847","-120.514","48811","Airport Operations","Nitrogen Oxides","Airport","20.69065174","2008"
"Merced Municipal/Macrea","Unknown","37.2847","-120.514","48811","Airport Operations","Carbon Monoxide","Airport","229.9174825","2008"
"Los Banos Muni","Unknown","37.0629","-120.869","48811","Airport Operations","Carbon Monoxide","Airport","45.3753","2008"
"SEKISUI TA INDUSTRIES, LLC","100 S PUENTE ST","33.9174","-117.917","322222","Coated and Laminated Paper Manufacturing","Volatile Organic Compounds","Miscellaneous","11.06850236","2008"
"SEKISUI TA INDUSTRIES, LLC","100 S PUENTE ST","33.9174","-117.917","322222","Coated and Laminated Paper Manufacturing","Ammonia","Miscellaneous","13.32521","2008"
"BREITBURN ENERGY CO, LLC","1450 BASTANCHURY RD","33.8995","-117.904","211111","Crude Petroleum and Natural Gas Extraction","Volatile Organic Compounds","Miscellaneous","5.2721901424","2008"
"BREITBURN ENERGY CO, LLC","1450 BASTANCHURY RD","33.8995","-117.904","211111","Crude Petroleum and Natural Gas Extraction","Carbon Monoxide","Miscellaneous","7.4","2008"
"Gustine","Unknown","37.2627","-120.963","48811","Airport Operations","Carbon Monoxide","Airport","20.86435","2008"
"RTI ELECTRONICS, INC.","1800 VIA BURTON ST","33.8564","-117.895","236117","New Housing Operative Builders","Volatile Organic Compounds","Miscellaneous","5.260251002","2008"
"CR TRANSFER INC","VARIOUS LOCATIONS IN SCAQMD","33.8010","-117.995","562212","Solid Waste Landfill","Nitrogen Oxides","Miscellaneous","12.52","2008"
"PSB","26012 ATLANTIC OCEAN DR","33.6663","-117.678","323110","Commercial Lithographic Printing","Nitrogen Oxides","Miscellaneous","7.97","2008"
"DYNAMIC DETAILS INC","1220 SIMON CIRCLE","33.8542","-117.863","334412","Bare Printed Circuit Board Manufacturing","Volatile Organic Compounds","Miscellaneous","6.6538233","2008"
"SCOTT BROS. DAIRY FARMS","18051 GILMAN SPRINGS RD","33.8900","-117.071","112120","Dairy Cattle and Milk Production","Volatile Organic Compounds","Miscellaneous","9.77358428","2008"
"SCOTT BROS. DAIRY FARMS","18051 GILMAN SPRINGS RD","33.8900","-117.071","112120","Dairy Cattle and Milk Production","Ammonia","Miscellaneous","37.03951","2008"
"WORLD COLOR PRINTING","6688 BOX SPRINGS BLVD","33.9294","-117.292","323110","Commercial Lithographic Printing","Volatile Organic Compounds","Miscellaneous","16.22","2008"
"J TALLEY CORP, TALLEY & OCHOA METAL FAB.","989 W SEVENTH ST","33.7803","-116.978","332312","Fabricated Structural Metal Manufacturing","Volatile Organic Compounds","Miscellaneous","17.47","2008"
"VICTOR PACKING INC","11687 ROAD 27 1/2","36.9201","-120.046","115114","Postharvest Crop Activities (except Cotton Ginning)","Carbon Monoxide","Miscellaneous","7.6095","2008"
"VICTOR PACKING INC","11687 ROAD 27 1/2","36.9201","-120.046","115114","Postharvest Crop Activities (except Cotton Ginning)","Sulfur Dioxide","Miscellaneous","14.094618","2008"
"General Wm J Fox Airfie","Unknown","34.7410","-118.219","48811","Airport Operations","Carbon Monoxide","Airport","173.504294750685","2008"
"Palmdale Prodn Flt/Test","Unknown","34.6328","-118.113","48811","Airport Operations","Volatile Organic Compounds","Airport","7.0034205218","2008"
"Palmdale Prodn Flt/Test","Unknown","34.6328","-118.113","48811","Airport Operations","Carbon Monoxide","Airport","155.85893199","2008"
"WESTERN FILTER CORP.","26235 TECHNOLOGY DR","34.4398","-118.596","333999","All Other Miscellaneous General Purpose Machinery Manufacturing","Volatile Organic Compounds","Miscellaneous","9.07476","2008"
"PLAINS WEST COAST TERMINALS LLC","2685 PIER S LN","33.7628","-118.226","486910","Pipeline Transportation of Refined Petroleum Products","Volatile Organic Compounds","Miscellaneous","8.19","2008"
"NORTHROP GRUMMAN SYSTEMS","33011700 AVIATION & ROSECRANS","33.9007","-118.380","336411","Aircraft Manufacturing","Nitrogen Oxides","Miscellaneous","6.51377275","2008"
"NORTHROP GRUMMAN SYSTEMS","33011700 AVIATION & ROSECRANS","33.9007","-118.380","336411","Aircraft Manufacturing","Carbon Monoxide","Miscellaneous","7.734471","2008"
"NORTHROP GRUMMAN SYSTEMS","33011700 AVIATION & ROSECRANS","33.9007","-118.380","336411","Aircraft Manufacturing","Volatile Organic Compounds","Miscellaneous","8.013802435","2008"
"MASK-OFF COMPANY, INC","328 W CHESTNUT AVE","34.1430","-118.006","322222","Coated and Laminated Paper Manufacturing","Volatile Organic Compounds","Miscellaneous","12.676433","2008"
"BP WEST COAST PROD/ARCO VINVALE TERMINAL","8601 S GARFIELD AVE","33.9500","-118.161","424710","Petroleum Bulk Stations and Terminals","Volatile Organic Compounds","Miscellaneous","7.237469334","2008"
"TOYOTA MOTOR SALES,U.S.A. INC","19001 S WESTERN AVE","33.8581","-118.310","423110","Automobile and Other Motor Vehicle Merchant Wholesalers","PM2.5 Primary (Filt + Cond","Miscellaneous","18.4519244206","2008"
"TOYOTA MOTOR SALES,U.S.A. INC","19001 S WESTERN AVE","33.8581","-118.310","423110","Automobile and Other Motor Vehicle Merchant Wholesalers","PM10","Miscellaneous","30.5404346812","2008"
"Agua Dulce Airpark","Unknown","34.5042","-118.313","48811","Airport Operations","Carbon Monoxide","Airport","7.19932","2008"
"AIR PROD & CHEM INC","23300 S ALAMEDA ST","33.8054","-118.237","325120","Industrial Gas Manufacturing","Carbon Monoxide","Miscellaneous","11.29","2008"
"AIR PROD & CHEM INC","23300 S ALAMEDA ST","33.8054","-118.237","325120","Industrial Gas Manufacturing","Nitrogen Oxides","Miscellaneous","13.58","2008"
"AIR PROD & CHEM INC","23300 S ALAMEDA ST","33.8054","-118.237","325120","Industrial Gas Manufacturing","Volatile Organic Compounds","Miscellaneous","20.2368985","2008"
"Madera Muni","Unknown","36.9857","-120.112","48811","Airport Operations","Carbon Monoxide","Airport","132.245367378685","2008"
"SARA LEE FRESH, INC","5200 S ALAMEDA ST","33.9952","-118.239","311812","Commercial Bakeries","Volatile Organic Compounds","Miscellaneous","6.4450673","2008"
"Chowchilla","Unknown","37.1124","-120.247","48811","Airport Operations","Carbon Monoxide","Airport","19.02357","2008"
"ST. JAMES OIL CORP.","1325 S BROADWAY","34.0368","-118.263","211111","Crude Petroleum and Natural Gas Extraction","Volatile Organic Compounds","Miscellaneous","19.536059163186","2008"
"CEMEX CONSTRUCTION MATERIALS L P","12325 ROAD 29","36.9655","-120.019","327320","Ready-Mix Concrete Manufacturing","PM10","Miscellaneous","6.54966401","2008"
"THUMS LONG BEACH CO","1411 PIER D ST","33.7682","-118.215","812320","Drycleaning and Laundry Services (except Coin-Operated)","Ammonia","Electricity Generation via Combustion","12.14","2008"
"THUMS LONG BEACH CO","1411 PIER D ST","33.7682","-118.215","812320","Drycleaning and Laundry Services (except Coin-Operated)","PM2.5 Primary (Filt + Cond","Electricity Generation via Combustion","12.7174","2008"
"THUMS LONG BEACH CO","1411 PIER D ST","33.7682","-118.215","812320","Drycleaning and Laundry Services (except Coin-Operated)","PM10","Electricity Generation via Combustion","12.7431","2008"
"THUMS LONG BEACH CO","1411 PIER D ST","33.7682","-118.215","812320","Drycleaning and Laundry Services (except Coin-Operated)","Carbon Monoxide","Electricity Generation via Combustion","26.17","2008"
"THUMS LONG BEACH CO","1411 PIER D ST","33.7682","-118.215","812320","Drycleaning and Laundry Services (except Coin-Operated)","Nitrogen Oxides","Electricity Generation via Combustion","30.26","2008"
"INEOS  POLYPROPYLENE LLC","2384 E 223RD ST","33.8242","-118.236","325211","Plastics Material and Resin Manufacturing","Volatile Organic Compounds","Miscellaneous","12.2776679","2008"
"PALMDALE WATER DISTRICT-WELL 11A","39511 15TH STREET EAST","34.6015","-118.103","221310","Water Supply and Irrigation Systems","Nitrogen Oxides","Miscellaneous","12.0057","2008"
"PALMDALE WATER DISTRICT-WELL 15","1003 EAST AVENUE P","34.6032","-118.111","221310","Water Supply and Irrigation Systems","Nitrogen Oxides","Miscellaneous","11.6456","2008"
"PALMDALE WATER DISTRICT-WELL 15","1003 EAST AVENUE P","34.6032","-118.111","221310","Water Supply and Irrigation Systems","Carbon Monoxide","Miscellaneous","19.6025","2008"
"PRAXAIR, INC.","2006 E 223 ST","33.8242","-118.242","325120","Industrial Gas Manufacturing","Carbon Monoxide","Miscellaneous","7","2008"
"A'S MATCH DYEING & FINISHING","2522 E 37TH ST","34.0088","-118.226","313312","Textile and Fabric Finishing (except Broadwoven Fabric) Mills","Carbon Monoxide","Miscellaneous","5.23","2008"
"A'S MATCH DYEING & FINISHING","2522 E 37TH ST","34.0088","-118.226","313312","Textile and Fabric Finishing (except Broadwoven Fabric) Mills","Nitrogen Oxides","Miscellaneous","5.37","2008"
"PACIFIC PIPELINE SYSTEM LLC","5900 CHERRY AVE","33.8621","-118.169","486910","Pipeline Transportation of Refined Petroleum Products","Volatile Organic Compounds","Miscellaneous","8.35","2008"
"DELTA SCIENTIFIC","40355 DELTA LANE","34.6971","-118.092","334290","Other Communications Equipment Manufacturing","PM10","Miscellaneous","5.66328","2008"
"SHEA TRAYLOR-LITTLEROCK","6205 EAST AVE T","34.5435","-118.017","327332","Concrete Pipe Manufacturing","PM2.5 Primary (Filt + Cond","Miscellaneous","5.835487","2008"
"SHEA TRAYLOR-LITTLEROCK","6205 EAST AVE T","34.5435","-118.017","327332","Concrete Pipe Manufacturing","PM10","Miscellaneous","6.667776","2008"
"SHEA TRAYLOR-LITTLEROCK","6205 EAST AVE T","34.5435","-118.017","327332","Concrete Pipe Manufacturing","Nitrogen Oxides","Miscellaneous","7.99048","2008"
"ANTELOPE VALLEY RECYCLING AND DISPOSAL FACILITY","1200 WEST CITY RANCH ROAD","34.5767","-118.188","924110","Administration of Air and Water Resource and Solid Waste Management Programs","PM2.5 Primary (Filt + Cond","Miscellaneous","8.6234322","2008"
"ANTELOPE VALLEY RECYCLING AND DISPOSAL FACILITY","1200 WEST CITY RANCH ROAD","34.5767","-118.188","924110","Administration of Air and Water Resource and Solid Waste Management Programs","Carbon Monoxide","Miscellaneous","19.054282","2008"
"ANTELOPE VALLEY RECYCLING AND DISPOSAL FACILITY","1200 WEST CITY RANCH ROAD","34.5767","-118.188","924110","Administration of Air and Water Resource and Solid Waste Management Programs","Sulfur Dioxide","Miscellaneous","28.8015859","2008"
"ANTELOPE VALLEY RECYCLING AND DISPOSAL FACILITY","1200 WEST CITY RANCH ROAD","34.5767","-118.188","924110","Administration of Air and Water Resource and Solid Waste Management Programs","PM10","Miscellaneous","34.2991072","2008"
"ANTELOPE VALLEY RECYCLING AND DISPOSAL FACILITY","1200 WEST CITY RANCH ROAD","34.5767","-118.188","924110","Administration of Air and Water Resource and Solid Waste Management Programs","Nitrogen Oxides","Miscellaneous","56.1158747","2008"
"RIALTO CONCRETE PRODUCTS, INC.","7186 E. AVE T","34.6091","-117.818","327332","Concrete Pipe Manufacturing","Nitrogen Oxides","Miscellaneous","7.72072","2008"
"ANTELOPE VALLEY PRESS","37404 SIERRA HWY","34.5622","-118.114","511110","Newspaper Publishers","Volatile Organic Compounds","Miscellaneous","6.97298","2008"
"ANTELOPE VALLEY PRESS","37404 SIERRA HWY","34.5622","-118.114","511110","Newspaper Publishers","PM2.5 Primary (Filt + Cond","Miscellaneous","65.6289","2008"
"ANTELOPE VALLEY PRESS","37404 SIERRA HWY","34.5622","-118.114","511110","Newspaper Publishers","PM10","Miscellaneous","68.1122","2008"
"NELSON NAMEPLATE COMPANY","2800 CASITAS AVE","34.1103","-118.247","323113","Commercial Screen Printing","Volatile Organic Compounds","Miscellaneous","11.6335354489","2008"
"SERVICE ROCK PRODUCTS / PALMDALE","75990 75 STREET, EAST","34.5797","-117.996","327320","Ready-Mix Concrete Manufacturing","Volatile Organic Compounds","Miscellaneous","14.8695935","2008"
"SERVICE ROCK PRODUCTS / PALMDALE","75990 75 STREET, EAST","34.5797","-117.996","327320","Ready-Mix Concrete Manufacturing","Nitrogen Oxides","Miscellaneous","16.736","2008"
"SERVICE ROCK PRODUCTS / PALMDALE","75990 75 STREET, EAST","34.5797","-117.996","327320","Ready-Mix Concrete Manufacturing","PM2.5 Primary (Filt + Cond","Miscellaneous","486.051038","2008"
"SERVICE ROCK PRODUCTS / PALMDALE","75990 75 STREET, EAST","34.5797","-117.996","327320","Ready-Mix Concrete Manufacturing","PM10","Miscellaneous","3120.248136","2008"
"REXHALL INDUSTRIES, INC.","46147 7TH. STREET WEST","34.7199","-118.143","446110","Pharmacies and Drug Stores","Volatile Organic Compounds","Miscellaneous","7.436532","2008"
"HOLLIDAY ROCK COMPANY","7749 EAST AVENUE T","34.6091","-117.818","327320","Ready-Mix Concrete Manufacturing","Carbon Monoxide","Miscellaneous","11.184215","2008"
"HOLLIDAY ROCK COMPANY","7749 EAST AVENUE T","34.6091","-117.818","327320","Ready-Mix Concrete Manufacturing","PM2.5 Primary (Filt + Cond","Miscellaneous","13.103605","2008"
"HOLLIDAY ROCK COMPANY","7749 EAST AVENUE T","34.6091","-117.818","327320","Ready-Mix Concrete Manufacturing","PM10","Miscellaneous","35.8724402","2008"
"HOLLIDAY ROCK COMPANY","7749 EAST AVENUE T","34.6091","-117.818","327320","Ready-Mix Concrete Manufacturing","Nitrogen Oxides","Miscellaneous","35.913","2008"
"INSTANT STORAGE","2301 EL TORO VIEJO RD","35.3835","-119.102","332812","Metal Coating, Engraving (except Jewelry and Silverware), and Allied Services to Manufacturers","Volatile Organic Compounds","Miscellaneous","14.456","2008"
"JASMINE VINEYARDS","33319 POND ROAD","35.7170","-119.150","111332","Grape Vineyards","Carbon Monoxide","Miscellaneous","9.412","2008"
"EQUILON ENT LLC, SHELL OIL PROD. U S","2457 REDONDO AVE","33.8022","-118.152","424720","Petroleum and Petroleum Products Merchant Wholesalers (except Bulk Stations and Terminals)","Volatile Organic Compounds","Miscellaneous","15.30123608","2008"
"Susanville Muni","Unknown","40.3768","-120.573","48811","Airport Operations","Carbon Monoxide","Airport","27.238231","2008"
"GOLDEN EMPIRE TRANSIT DISTRICT","1830 GOLDEN STATE AVE","35.3870","-119.018","485111","Mixed Mode Transit Systems","Carbon Monoxide","Miscellaneous","6.249034824","2008"
"OBERTHUR CARD SYSTEMS","3150 E ANA ST","33.8619","-118.207","323119","Other Commercial Printing","Volatile Organic Compounds","Miscellaneous","7.419886","2008"
"ALL AMERICAN ASPHALT","13646 LIVE OAK LN","34.1137","-117.976","324121","Asphalt Paving Mixture and Block Manufacturing","PM10","Miscellaneous","6.99709624","2008"
"BFI WASTE SYS OF NA/AZUSA GAS SYS OPR","1201 -1209 W GLADSTONE ST","34.1144","-117.923","562212","Solid Waste Landfill","Nitrogen Oxides","Miscellaneous","8.24","2008"
"BFI WASTE SYS OF NA/AZUSA GAS SYS OPR","1201 -1209 W GLADSTONE ST","34.1144","-117.923","562212","Solid Waste Landfill","Carbon Monoxide","Miscellaneous","27.53628422","2008"
"CAITAC GARMENT PROCESSING INC","14725 S BROADWAY","33.8989","-118.280","812332","Industrial Launderers","Nitrogen Oxides","Miscellaneous","11.26","2008"
"CAITAC GARMENT PROCESSING INC","14725 S BROADWAY","33.8989","-118.280","812332","Industrial Launderers","Carbon Monoxide","Miscellaneous","16.07","2008"
"Lampson Field","Unknown","38.9902","-122.900","48811","Airport Operations","Volatile Organic Compounds","Airport","5.244659077745","2008"
"Lampson Field","Unknown","38.9902","-122.900","48811","Airport Operations","Carbon Monoxide","Airport","195.174264168685","2008"
"BOWMAN ASPHALT INC","NE CORNER & SE CORNER OF MERIDIAN AVE & CASE STREET","35.3911","-119.056","324121","Asphalt Paving Mixture and Block Manufacturing","Carbon Monoxide","Miscellaneous","6.3244276","2008"
"RIBOST TERMINAL, LLC.","1405 PIER  C  ST","33.7737","-118.213","424710","Petroleum Bulk Stations and Terminals","Volatile Organic Compounds","Miscellaneous","10.80194052","2008"
"Hanford Muni","Unknown","36.3185","-119.629","48811","Airport Operations","Carbon Monoxide","Airport","74.3292","2008"
"Corcoran","Unknown","36.1025","-119.595","48811","Airport Operations","Carbon Monoxide","Airport","14.60505","2008"
"IVANHOE ENERGY","HEAVY OIL WESTERN","35.0376","-119.375","211111","Crude Petroleum and Natural Gas Extraction","Carbon Monoxide","Miscellaneous","7.56035952","2008"
"IVANHOE ENERGY","HEAVY OIL WESTERN","35.0376","-119.375","211111","Crude Petroleum and Natural Gas Extraction","Sulfur Dioxide","Miscellaneous","9.30311","2008"
"PASTORIA ENERGY FACILITY, LLC","TEJON RANCH 30 MILES S OF","34.9366","-118.879","221111","Hydroelectric Power Generation","Volatile Organic Compounds","Electricity Generation via Combustion","5.2958577","2008"
"PASTORIA ENERGY FACILITY, LLC","TEJON RANCH 30 MILES S OF","34.9366","-118.879","221111","Hydroelectric Power Generation","PM2.5 Primary (Filt + Cond","Electricity Generation via Combustion","68.443233239","2008"
"PASTORIA ENERGY FACILITY, LLC","TEJON RANCH 30 MILES S OF","34.9366","-118.879","221111","Hydroelectric Power Generation","PM10","Electricity Generation via Combustion","68.8436618","2008"
"PASTORIA ENERGY FACILITY, LLC","TEJON RANCH 30 MILES S OF","34.9366","-118.879","221111","Hydroelectric Power Generation","Carbon Monoxide","Electricity Generation via Combustion","77.3937366","2008"
"PASTORIA ENERGY FACILITY, LLC","TEJON RANCH 30 MILES S OF","34.9366","-118.879","221111","Hydroelectric Power Generation","Nitrogen Oxides","Electricity Generation via Combustion","98.124793","2008"
"RIO BRAVO TOMATO COMPANY LLC","INTERSTATE 5 AND SR 58","35.3985","-119.469","311421","Fruit and Vegetable Canning","Carbon Monoxide","Miscellaneous","13.30564784","2008"
"E C GROUP, INC","5960 BOWCROFT ST","34.0192","-118.379","321999","All Other Miscellaneous Wood Product Manufacturing","Volatile Organic Compounds","Miscellaneous","5.4948615815","2008"
"ELK HILLS POWER LLC","4026 SKYLINE RD","35.2796","-119.296","221111","Hydroelectric Power Generation","PM10","Electricity Generation via Combustion","5.255964","2008"
"LA PALOMA GENERATING CO LLC","1760 W. SKYLINE ROAD","35.2874","-119.597","221111","Hydroelectric Power Generation","Sulfur Dioxide","Electricity Generation via Combustion","14.2814821","2008"
"LA PALOMA GENERATING CO LLC","1760 W. SKYLINE ROAD","35.2874","-119.597","221111","Hydroelectric Power Generation","PM2.5 Primary (Filt + Cond","Electricity Generation via Combustion","25.560118554","2008"
"LA PALOMA GENERATING CO LLC","1760 W. SKYLINE ROAD","35.2874","-119.597","221111","Hydroelectric Power Generation","PM10","Electricity Generation via Combustion","25.6113719","2008"
"LA PALOMA GENERATING CO LLC","1760 W. SKYLINE ROAD","35.2874","-119.597","221111","Hydroelectric Power Generation","Ammonia","Electricity Generation via Combustion","42.63132","2008"
"LA PALOMA GENERATING CO LLC","1760 W. SKYLINE ROAD","35.2874","-119.597","221111","Hydroelectric Power Generation","Carbon Monoxide","Electricity Generation via Combustion","67.29977375","2008"
"LA PALOMA GENERATING CO LLC","1760 W. SKYLINE ROAD","35.2874","-119.597","221111","Hydroelectric Power Generation","Nitrogen Oxides","Electricity Generation via Combustion","135.6009979","2008"
"BIG WEST OF CA, LLC","3663 GIBSON ST (AREA 3)","35.3933","-119.052","324110","Petroleum Refineries","Carbon Monoxide","Petroleum Refinery","8.435474049","2008"
"BIG WEST OF CA, LLC","3663 GIBSON ST (AREA 3)","35.3933","-119.052","324110","Petroleum Refineries","PM2.5 Primary (Filt + Cond","Petroleum Refinery","11.03672896","2008"
"BIG WEST OF CA, LLC","3663 GIBSON ST (AREA 3)","35.3933","-119.052","324110","Petroleum Refineries","PM10","Petroleum Refinery","11.57261385","2008"
"BIG WEST OF CA, LLC","3663 GIBSON ST (AREA 3)","35.3933","-119.052","324110","Petroleum Refineries","Sulfur Dioxide","Petroleum Refinery","12.523429785","2008"
"BIG WEST OF CA, LLC","3663 GIBSON ST (AREA 3)","35.3933","-119.052","324110","Petroleum Refineries","Nitrogen Oxides","Petroleum Refinery","15.0982003","2008"
"BIG WEST OF CA, LLC","3663 GIBSON ST (AREA 3)","35.3933","-119.052","324110","Petroleum Refineries","Volatile Organic Compounds","Petroleum Refinery","21.48937857","2008"
"CALIF STATE PRISON - AVENAL","1 KINGS WAY","36.0024","-120.129","922140","Correctional Institutions","Nitrogen Oxides","Miscellaneous","9.3112559","2008"
"CALIF STATE PRISON - AVENAL","1 KINGS WAY","36.0024","-120.129","922140","Correctional Institutions","Carbon Monoxide","Miscellaneous","24.873778963","2008"
"BIG WEST OF CA, LLC","2436 FRUITVALE AVE","35.3822","-119.074","424720","Petroleum and Petroleum Products Merchant Wholesalers (except Bulk Stations and Terminals)","Volatile Organic Compounds","Miscellaneous","9.52064192128","2008"
"BAKERSFIELD METROPOLITAN LANDFILL @BENA","2951 NEUMARKEL ROAD","35.3490","-118.876","562211","Hazardous Waste Treatment and Disposal","Carbon Monoxide","Miscellaneous","13.7012","2008"
"SCHAWK, INC","3116 W AVENUE 32","34.1171","-118.245","323110","Commercial Lithographic Printing","Volatile Organic Compounds","Miscellaneous","6.6629200778","2008"
"ST. VINCENT MEDICAL GROUP","2131 W 3RD ST","34.0632","-118.274","622110","General Medical and Surgical Hospitals","Nitrogen Oxides","Miscellaneous","5.1","2008"
"CRIMSON RESOURCE MANAGEMENT","29007 W HASLEY CANYON RD","34.4573","-118.643","211111","Crude Petroleum and Natural Gas Extraction","Volatile Organic Compounds","Miscellaneous","5.045091","2008"
"CRIMSON RESOURCE MANAGEMENT","29007 W HASLEY CANYON RD","34.4573","-118.643","211111","Crude Petroleum and Natural Gas Extraction","Nitrogen Oxides","Miscellaneous","19.54","2008"
"CRIMSON RESOURCE MANAGEMENT","29007 W HASLEY CANYON RD","34.4573","-118.643","211111","Crude Petroleum and Natural Gas Extraction","Carbon Monoxide","Miscellaneous","32.15","2008"
"PENROSE LANDFILL GAS CONVERSION, LLC","8301 TUJUNGA AVE","34.2214","-118.380","221119","Other Electric Power Generation","Sulfur Dioxide","Electricity Generation via Combustion","5.26","2008"
"PENROSE LANDFILL GAS CONVERSION, LLC","8301 TUJUNGA AVE","34.2214","-118.380","221119","Other Electric Power Generation","Volatile Organic Compounds","Electricity Generation via Combustion","9.33","2008"
"PENROSE LANDFILL GAS CONVERSION, LLC","8301 TUJUNGA AVE","34.2214","-118.380","221119","Other Electric Power Generation","Nitrogen Oxides","Electricity Generation via Combustion","30.48","2008"
"PENROSE LANDFILL GAS CONVERSION, LLC","8301 TUJUNGA AVE","34.2214","-118.380","221119","Other Electric Power Generation","Carbon Monoxide","Electricity Generation via Combustion","105.64","2008"
"Tehachapi Muni","Unknown","35.1350","-118.439","48811","Airport Operations","Carbon Monoxide","Airport","31.19551","2008"
"SO CAL GAS CO/PLAYA DEL REY STORAGE FACI","8141 GULANA AVE","33.9628","-118.440","221210","Natural Gas Distribution","Volatile Organic Compounds","Oil or Gas Field (On-shore)","15.07186507","2008"
"SO CAL GAS CO/PLAYA DEL REY STORAGE FACI","8141 GULANA AVE","33.9628","-118.440","221210","Natural Gas Distribution","Nitrogen Oxides","Oil or Gas Field (On-shore)","26.43603632","2008"
"Shafter-Minter Field","Unknown","35.5059","-119.192","48811","Airport Operations","Carbon Monoxide","Airport","117.3619","2008"
"Mojave","Unknown","35.0594","-118.152","48811","Airport Operations","Carbon Monoxide","Airport","63.630789813","2008"
"DUCOMMUN AEROSTRUCTURES INC","801 ROYAL OAK DR","34.1433","-117.990","336412","Aircraft Engine and Engine Parts Manufacturing","Volatile Organic Compounds","Miscellaneous","6.347697137","2008"
"PERFORMANCE COMPOSITES, INC","1418 S ALAMEDA ST","33.8834","-118.217","325211","Plastics Material and Resin Manufacturing","Volatile Organic Compounds","Miscellaneous","7.834375","2008"
"GRAPHIC PRESS LLC  DBA INSYNC MKTG. SOL","6100 MALT AVE","33.9790","-118.146","323110","Commercial Lithographic Printing","Volatile Organic Compounds","Miscellaneous","8.865524","2008"
"LITHOGRAPHIX INC","12250 CRENSHAW BLVD","33.9213","-118.327","323110","Commercial Lithographic Printing","Volatile Organic Compounds","Miscellaneous","27.2","2008"
"DELTA PRINTING SOLUTIONS","28210 N AVENUE STANFORD","34.4416","-118.602","323117","Books Printing","Volatile Organic Compounds","Miscellaneous","9.40886","2008"
"RIPON COGENERATION LLC","1507 MOUNT VERNON AVE","34.0585","-117.780","221112","Fossil Fuel Electric Power Generation","Volatile Organic Compounds","Electricity Generation via Combustion","8.3800086","2008"
"RIPON COGENERATION LLC","1507 MOUNT VERNON AVE","34.0585","-117.780","221112","Fossil Fuel Electric Power Generation","Nitrogen Oxides","Electricity Generation via Combustion","15.000758323","2008"
"RIPON COGENERATION LLC","1507 MOUNT VERNON AVE","34.0585","-117.780","221112","Fossil Fuel Electric Power Generation","Carbon Monoxide","Electricity Generation via Combustion","66.0707908","2008"
"CALIFORNIA ART PRODUCTS, CAPCOL PSA","11125 VANOWEN ST","34.1940","-118.373","326199","All Other Plastics Product Manufacturing","Volatile Organic Compounds","Miscellaneous","6.11","2008"
"DCOR LLC","14737 SAN FERNANDO RD","34.3237","-118.504","211111","Crude Petroleum and Natural Gas Extraction","Nitrogen Oxides","Miscellaneous","5.91","2008"
"DCOR LLC","14737 SAN FERNANDO RD","34.3237","-118.504","211111","Crude Petroleum and Natural Gas Extraction","Carbon Monoxide","Miscellaneous","9.8759938","2008"
"VOPAK TERMINAL LONG BEACH INC,A DELAWARE","3601 DOCK ST","33.7599","-118.231","493190","Other Warehousing and Storage","Volatile Organic Compounds","Miscellaneous","6.618370366","2008"
"FLEISCHMANN'S VINEGAR CO, INC","444 ROOSEVELT AVE","34.0000","-118.101","311941","Mayonnaise, Dressing, and Other Prepared Sauce Manufacturing","Volatile Organic Compounds","Miscellaneous","11.4916225","2008"
"AVALON LABORATORIES, LLC","2610 E HOMESTEAD","33.8600","-118.211","541380","Testing Laboratories","Volatile Organic Compounds","Miscellaneous","6.6641500823","2008"
"ALL AMERICAN ASPHALT","11549 BRADLEY AVE","34.2794","-118.430","324121","Asphalt Paving Mixture and Block Manufacturing","PM10","Miscellaneous","5.77078943","2008"
"ALL AMERICAN ASPHALT","11549 BRADLEY AVE","34.2794","-118.430","324121","Asphalt Paving Mixture and Block Manufacturing","Carbon Monoxide","Miscellaneous","10.5","2008"
"Lost Hills-Kern County","Unknown","35.6236","-119.686","48811","Airport Operations","Carbon Monoxide","Airport","9.72733","2008"
"California City Muni","Unknown","35.1513","-118.017","48811","Airport Operations","Carbon Monoxide","Airport","106.3369","2008"
"Bakersfield Municipal","Unknown","35.3248","-118.996","48811","Airport Operations","Carbon Monoxide","Airport","70.8989","2008"
"Wasco-Kern County","Unknown","35.6197","-119.354","48811","Airport Operations","Carbon Monoxide","Airport","27.842313","2008"
"Taft-Kern County","Unknown","35.1411","-119.441","48811","Airport Operations","Carbon Monoxide","Airport","28.10095","2008"
"Kern Valley","Unknown","35.7283","-118.420","48811","Airport Operations","Carbon Monoxide","Airport","30.82671","2008"
"Inyokern","Unknown","35.6588","-117.830","48811","Airport Operations","Volatile Organic Compounds","Airport","5.896894982","2008"
"Inyokern","Unknown","35.6588","-117.830","48811","Airport Operations","Nitrogen Oxides","Airport","12.45363466","2008"
"Inyokern","Unknown","35.6588","-117.830","48811","Airport Operations","Carbon Monoxide","Airport","125.189162","2008"
"Delano Muni","Unknown","35.7456","-119.237","48811","Airport Operations","Carbon Monoxide","Airport","49.5528","2008"
"Meadows Field","Unknown","35.4461","-119.072","48811","Airport Operations","PM10","Airport","9.7845190189","2008"
"Meadows Field","Unknown","35.4461","-119.072","48811","Airport Operations","Volatile Organic Compounds","Airport","15.53380046723","2008"
"Meadows Field","Unknown","35.4461","-119.072","48811","Airport Operations","Nitrogen Oxides","Airport","23.265819808","2008"
"Meadows Field","Unknown","35.4461","-119.072","48811","Airport Operations","Carbon Monoxide","Airport","375.5767880544","2008"
"SHAW DIVERSIFIED SERVICES INC","15305 VALLEY VIEW AVE","33.8925","-118.030","314110","Carpet and Rug Mills","Nitrogen Oxides","Miscellaneous","5.13","2008"
"SHAW DIVERSIFIED SERVICES INC","15305 VALLEY VIEW AVE","33.8925","-118.030","314110","Carpet and Rug Mills","Carbon Monoxide","Miscellaneous","8.33","2008"
"BP WEST COAST PRODUCTS LLC,BP WILMINGTON","1175 CARRACK AVE","33.7699","-118.221","324199","All Other Petroleum and Coal Products Manufacturing","PM2.5 Primary (Filt + Cond","Miscellaneous","27.507535926","2008"
"BP WEST COAST PRODUCTS LLC,BP WILMINGTON","1175 CARRACK AVE","33.7699","-118.221","324199","All Other Petroleum and Coal Products Manufacturing","PM10","Miscellaneous","48.889260662","2008"
"BP WEST COAST PRODUCTS LLC,BP WILMINGTON","1175 CARRACK AVE","33.7699","-118.221","324199","All Other Petroleum and Coal Products Manufacturing","Carbon Monoxide","Miscellaneous","94.31","2008"
"BP WEST COAST PRODUCTS LLC,BP WILMINGTON","1175 CARRACK AVE","33.7699","-118.221","324199","All Other Petroleum and Coal Products Manufacturing","Nitrogen Oxides","Miscellaneous","184.98","2008"
"BP WEST COAST PRODUCTS LLC,BP WILMINGTON","1175 CARRACK AVE","33.7699","-118.221","324199","All Other Petroleum and Coal Products Manufacturing","Sulfur Dioxide","Miscellaneous","208.47","2008"
"HORIZON MILLING, LLC","5471 FERGUSON DR","34.0106","-118.157","311211","Flour Milling","PM10","Miscellaneous","6.846","2008"
"PAPER-PAK INDUSTRIES","1941 N WHITE AVE","34.0954","-117.765","322121","Paper (except Newsprint) Mills","Nitrogen Oxides","Miscellaneous","5.64","2008"
"Buchanan Field","Unknown","37.9830","-122.063","48811","Airport Operations","PM10","Airport","5.8990102","2008"
"Buchanan Field","Unknown","37.9830","-122.063","48811","Airport Operations","Volatile Organic Compounds","Airport","6.6219754","2008"
"Buchanan Field","Unknown","37.9830","-122.063","48811","Airport Operations","Carbon Monoxide","Airport","269.22513","2008"
"Byron","Unknown","37.8285","-121.626","48811","Airport Operations","Carbon Monoxide","Airport","67.0067","2008"
"Mendota","Unknown","36.7580","-120.371","48811","Airport Operations","Carbon Monoxide","Airport","24.8776","2008"
"Firebaugh","Unknown","36.8600","-120.464","48811","Airport Operations","Carbon Monoxide","Airport","26.96289","2008"
"Reedley Muni","Unknown","36.6663","-119.450","48811","Airport Operations","Carbon Monoxide","Airport","88.9776","2008"
"CONOCOPHILLIPS PIPE LINE COMPANY","MIDWAY PUMPING STATION","35.1320","-119.484","486110","Pipeline Transportation of Crude Oil","Carbon Monoxide","Miscellaneous","8.2869","2008"
"BAYER CROPSCIENCE","561 NORTH AMERICAN ST","35.5066","-119.182","115114","Postharvest Crop Activities (except Cotton Ginning)","PM10","Miscellaneous","6.3476688","2008"
"PLAINS EXPLORATION & PRODUCTION COMPANY","HEAVY OIL WESTERN","35.3620","-119.666","211111","Crude Petroleum and Natural Gas Extraction","Sulfur Dioxide","Miscellaneous","12.275701","2008"
"PLAINS EXPLORATION & PRODUCTION COMPANY","HEAVY OIL WESTERN","35.3620","-119.666","211111","Crude Petroleum and Natural Gas Extraction","PM2.5 Primary (Filt + Cond","Miscellaneous","44.7836016","2008"
"PLAINS EXPLORATION & PRODUCTION COMPANY","HEAVY OIL WESTERN","35.3620","-119.666","211111","Crude Petroleum and Natural Gas Extraction","PM10","Miscellaneous","44.7885235","2008"
"PLAINS EXPLORATION & PRODUCTION COMPANY","HEAVY OIL WESTERN","35.3620","-119.666","211111","Crude Petroleum and Natural Gas Extraction","Volatile Organic Compounds","Miscellaneous","55.6249815","2008"
"PLAINS EXPLORATION & PRODUCTION COMPANY","HEAVY OIL WESTERN","35.3620","-119.666","211111","Crude Petroleum and Natural Gas Extraction","Carbon Monoxide","Miscellaneous","72.9572075","2008"
"PLAINS EXPLORATION & PRODUCTION COMPANY","HEAVY OIL WESTERN","35.3620","-119.666","211111","Crude Petroleum and Natural Gas Extraction","Nitrogen Oxides","Miscellaneous","228.212962","2008"
"Fresno-Chandler Downtow","Unknown","36.7344","-119.825","48811","Airport Operations","Carbon Monoxide","Airport","65.2011","2008"
"Fresno Yosemite Interna","Unknown","36.7802","-119.732","48811","Airport Operations","PM2.5 Primary (Filt + Cond","Airport","5.5908518303","2008"
"Fresno Yosemite Interna","Unknown","36.7802","-119.732","48811","Airport Operations","PM10","Airport","12.6309206003","2008"
"Fresno Yosemite Interna","Unknown","36.7802","-119.732","48811","Airport Operations","Sulfur Dioxide","Airport","13.8957342931","2008"
"Fresno Yosemite Interna","Unknown","36.7802","-119.732","48811","Airport Operations","Volatile Organic Compounds","Airport","38.95610312952","2008"
"Fresno Yosemite Interna","Unknown","36.7802","-119.732","48811","Airport Operations","Nitrogen Oxides","Airport","121.740810127","2008"
"Fresno Yosemite Interna","Unknown","36.7802","-119.732","48811","Airport Operations","Carbon Monoxide","Airport","624.0478669666","2008"
"New Coalinga Muni","Unknown","36.1631","-120.294","48811","Airport Operations","Carbon Monoxide","Airport","6.4711","2008"
"DEL REY PACKING CO","3693 S INDIANOLA AVE","36.6748","-119.583","115114","Postharvest Crop Activities (except Cotton Ginning)","Sulfur Dioxide","Miscellaneous","7.840257","2008"
"CHEVRON USA, INC.","S. 7F  T. 20S  R. 16E","36.2030","-120.280","211111","Crude Petroleum and Natural Gas Extraction","Carbon Monoxide","Miscellaneous","14.6357","2008"
"VENOCO, INC","NICHOLS ROAD","38.0368","-121.987","211111","Crude Petroleum and Natural Gas Extraction","Nitrogen Oxides","Miscellaneous","8.877","2008"
"MB TECHNOLOGY","188 S TEILMAN AVE","36.7266","-119.840","324122","Asphalt Shingle and Coating Materials Manufacturing","PM2.5 Primary (Filt + Cond","Miscellaneous","9.809006","2008"
"MB TECHNOLOGY","188 S TEILMAN AVE","36.7266","-119.840","324122","Asphalt Shingle and Coating Materials Manufacturing","PM10","Miscellaneous","16.34836","2008"
"MB TECHNOLOGY","188 S TEILMAN AVE","36.7266","-119.840","324122","Asphalt Shingle and Coating Materials Manufacturing","Volatile Organic Compounds","Miscellaneous","32.453","2008"
"INTEGRATED GRAIN & MILLING","315 NORTH H ST","36.7470","-119.809","311211","Flour Milling","PM10","Miscellaneous","9.90968","2008"
"CALCO GEN LLC","1636 S 2ND ST","36.7263","-119.771","111998","All Other Miscellaneous Crop Farming","Carbon Monoxide","Miscellaneous","5.9715","2008"
"CAMPOS BROTHERS","15516 S WALNUT & 855 W CONEJO","36.5106","-119.809","115114","Postharvest Crop Activities (except Cotton Ginning)","PM10","Miscellaneous","7.18132","2008"
"PENNY-NEWMAN GRAIN COMPANY","2691 S CEDAR AVE","36.7028","-119.755","115114","Postharvest Crop Activities (except Cotton Ginning)","PM10","Miscellaneous","13.42836","2008"
"VITA-PAKT","8898 E CENTRAL AVE","36.6777","-119.635","115114","Postharvest Crop Activities (except Cotton Ginning)","Carbon Monoxide","Miscellaneous","8.74923","2008"
"SAFEWAY STORES INC, BAKERY PLA","905 SO 34TH STREET","37.9202","-122.341","311812","Commercial Bakeries","Volatile Organic Compounds","Miscellaneous","28.2332094","2008"
"INNOVATIVE COATINGS TECH. CORP","1347 POOLE STREET, BLDG 105","35.0509","-118.157","332812","Metal Coating, Engraving (except Jewelry and Silverware), and Allied Services to Manufacturers","Volatile Organic Compounds","Miscellaneous","18.06","2008"
"Lone Pine","Unknown","36.5883","-118.052","48811","Airport Operations","Carbon Monoxide","Airport","22.87161","2008"
"GOLDEN STATE VINTNERS","7409 W CENTRAL","36.6730","-119.926","312130","Wineries","Volatile Organic Compounds","Miscellaneous","46.500040572","2008"
"FRESNO CHRYSLER-PLYMOUTH INC.","4880 N BLACKSTONE AVE","36.8063","-119.790","441110","New Car Dealers","Volatile Organic Compounds","Miscellaneous","6.86315","2008"
"MARBLE SHOP, INC","180 BLISS AVENUE","38.0135","-121.886","327991","Cut Stone and Stone Product Manufacturing","Volatile Organic Compounds","Miscellaneous","6.9970808","2008"
"Trona","Unknown","35.8125","-117.327","48811","Airport Operations","Carbon Monoxide","Airport","18.69827","2008"
"Furnace Creek","Unknown","36.4638","-116.881","48811","Airport Operations","Carbon Monoxide","Airport","28.92677","2008"
"Bishop","Unknown","37.3731","-118.364","48811","Airport Operations","Carbon Monoxide","Airport","78.843531336","2008"
"Independence","Unknown","36.8138","-118.205","48811","Airport Operations","Carbon Monoxide","Airport","7.82413","2008"
"Holtville","Unknown","32.8403","-115.267","48811","Airport Operations","Carbon Monoxide","Airport","8.59865","2008"
"Imperial County","Unknown","32.8342","-115.579","48811","Airport Operations","Nitrogen Oxides","Airport","5.1736259","2008"
"Imperial County","Unknown","32.8342","-115.579","48811","Airport Operations","Volatile Organic Compounds","Airport","6.04274623","2008"
"Imperial County","Unknown","32.8342","-115.579","48811","Airport Operations","Carbon Monoxide","Airport","197.3184954","2008"
"Calexico Intl","Unknown","32.6695","-115.513","48811","Airport Operations","Carbon Monoxide","Airport","31.516372","2008"
"Brawley Muni","Unknown","32.9931","-115.517","48811","Airport Operations","Carbon Monoxide","Airport","124.772164","2008"
"BROWNING FERRIS INDUSTRIES","8662 W MUSCAT AVE","36.6844","-119.943","562211","Hazardous Waste Treatment and Disposal","Nitrogen Oxides","Miscellaneous","5.29914","2008"
"BROWNING FERRIS INDUSTRIES","8662 W MUSCAT AVE","36.6844","-119.943","562211","Hazardous Waste Treatment and Disposal","Carbon Monoxide","Miscellaneous","12.3463","2008"
"WEYERHAEUSER COMPANY","1000 MUSCAT AVE","36.6851","-119.553","322211","Corrugated and Solid Fiber Box Manufacturing","Volatile Organic Compounds","Miscellaneous","7.5276863","2008"
"SF BAY AREA RAPID TRANSIT DIST","1101 13TH STREET","37.9460","-122.356","485111","Mixed Mode Transit Systems","PM2.5 Primary (Filt + Cond","Miscellaneous","35.6","2008"
"SF BAY AREA RAPID TRANSIT DIST","1101 13TH STREET","37.9460","-122.356","485111","Mixed Mode Transit Systems","PM10","Miscellaneous","36","2008"
"Kneeland","Unknown","40.7193","-123.928","48811","Airport Operations","Carbon Monoxide","Airport","23.08681","2008"
"Garberville","Unknown","40.0860","-123.814","48811","Airport Operations","Carbon Monoxide","Airport","39.12058","2008"
"MAACO AUTO PAINTING & BODYWORKS","6750 N BLACKSTONE AVE","36.8362","-119.790","811121","Automotive Body, Paint, and Interior Repair and Maintenance","Volatile Organic Compounds","Miscellaneous","10.060888","2008"
"CONOCO PHILLIPS PIPE LINE CO.","COALINGA PUMP STATION","36.2346","-120.239","486110","Pipeline Transportation of Crude Oil","Carbon Monoxide","Miscellaneous","36.97145","2008"
"LION PACKING COMPANY","9400 S DEWOLF","36.5642","-119.628","115114","Postharvest Crop Activities (except Cotton Ginning)","Carbon Monoxide","Miscellaneous","17.5636","2008"
"BAKERSFIELD CITY WASTEWATER #3","8101 ASHE ROAD","35.2806","-119.074","221320","Sewage Treatment Facilities","Volatile Organic Compounds","Wastewater Treatment Facility","8.5034339","2008"
"BAKERSFIELD CITY WASTEWATER #3","8101 ASHE ROAD","35.2806","-119.074","221320","Sewage Treatment Facilities","Carbon Monoxide","Wastewater Treatment Facility","39.30988574","2008"
"Rohnerville","Unknown","40.5539","-124.133","48811","Airport Operations","Carbon Monoxide","Airport","71.7211","2008"
"Murray Field","Unknown","40.8034","-124.113","48811","Airport Operations","Carbon Monoxide","Airport","172.262716023","2008"
"Arcata","Unknown","40.9781","-124.109","48811","Airport Operations","PM10","Airport","5.3214221915","2008"
"Arcata","Unknown","40.9781","-124.109","48811","Airport Operations","Volatile Organic Compounds","Airport","11.3073387001","2008"
"Arcata","Unknown","40.9781","-124.109","48811","Airport Operations","Nitrogen Oxides","Airport","11.896782135","2008"
"Arcata","Unknown","40.9781","-124.109","48811","Airport Operations","Carbon Monoxide","Airport","238.47896547","2008"
"THE WINE GROUP, INC.","2916 S REED AVE","36.6910","-119.455","312130","Wineries","Volatile Organic Compounds","Miscellaneous","25.07718","2008"
"DRILLING & PRODUCTION CO","HEAVY OIL WESTERN","35.4175","-119.011","211111","Crude Petroleum and Natural Gas Extraction","Sulfur Dioxide","Miscellaneous","10.853096","2008"
"DRILLING & PRODUCTION CO","HEAVY OIL WESTERN","35.4175","-119.011","211111","Crude Petroleum and Natural Gas Extraction","Carbon Monoxide","Miscellaneous","15.3383","2008"
"Shelter Cove","Unknown","40.0276","-124.073","48811","Airport Operations","Carbon Monoxide","Airport","26.42807","2008"
"Willows-Glenn County","Unknown","39.5164","-122.218","48811","Airport Operations","Carbon Monoxide","Airport","73.852036","2008"
"Haigh Field","Unknown","39.7212","-122.147","48811","Airport Operations","Carbon Monoxide","Airport","48.4256","2008"
"BELMONT MEMORIAL PARK","201 N TEILMAN","36.7452","-119.822","812210","Funeral Homes and Funeral Services","Nitrogen Oxides","Miscellaneous","13.6506","2008"
"SCELZI ENTERPRISES INC","2772 S CHERRY AVE","36.7010","-119.782","811121","Automotive Body, Paint, and Interior Repair and Maintenance","Volatile Organic Compounds","Miscellaneous","5.1348155","2008"
"FOUR BAR C FARMS INC","10616 S WEST AVE","36.5817","-119.827","115114","Postharvest Crop Activities (except Cotton Ginning)","Carbon Monoxide","Miscellaneous","5.36593","2008"
"FOUR BAR C FARMS INC","10616 S WEST AVE","36.5817","-119.827","115114","Postharvest Crop Activities (except Cotton Ginning)","Sulfur Dioxide","Miscellaneous","6.312469","2008"
"Lake Tahoe","Unknown","38.8939","-119.995","48811","Airport Operations","Carbon Monoxide","Airport","72.920374","2008"
"Georgetown","Unknown","38.9211","-120.865","48811","Airport Operations","Carbon Monoxide","Airport","58.17155","2008"
"Placerville","Unknown","38.7242","-120.753","48811","Airport Operations","Carbon Monoxide","Airport","168.085713","2008"
"Cameron Airpark","Unknown","38.6841","-120.987","48811","Airport Operations","Carbon Monoxide","Airport","86.171874","2008"
"KRAFT FOODS NORTH AMERICA INC","4343 E FLORENCE AVE","36.7178","-119.753","311911","Roasted Nuts and Peanut Butter Manufacturing","PM10","Miscellaneous","5.1130625","2008"
"Jack Mc Namara Field","Unknown","41.7802","-124.237","48811","Airport Operations","Carbon Monoxide","Airport","36.4799218","2008"
"CITY OF ALAMEDA, MAINT SERV CE","DOOLITTLE DRIVE","37.7457","-122.235","562211","Hazardous Waste Treatment and Disposal","Carbon Monoxide","Miscellaneous","5.755","2008"
"NELSON'S MARINE INC","1500 FERRY POINT, BLDG #167","37.7834","-122.319","336612","Boat Building","Volatile Organic Compounds","Miscellaneous","8.42679","2008"
"PECHINEY PLASTIC PACKAGING, IN","6590 CENTRAL AVE","37.5280","-122.024","326113","Unlaminated Plastics Film and Sheet (except Packaging) Manufacturing","PM2.5 Primary (Filt + Cond","Miscellaneous","7.383239","2008"
"PECHINEY PLASTIC PACKAGING, IN","6590 CENTRAL AVE","37.5280","-122.024","326113","Unlaminated Plastics Film and Sheet (except Packaging) Manufacturing","PM10","Miscellaneous","7.468958","2008"
"PECHINEY PLASTIC PACKAGING, IN","6590 CENTRAL AVE","37.5280","-122.024","326113","Unlaminated Plastics Film and Sheet (except Packaging) Manufacturing","Volatile Organic Compounds","Miscellaneous","12.1514442","2008"
"STRATEGIC MATERIALS, INC","1932 FAIRWAY DRIVE","37.7002","-122.169","327213","Glass Container Manufacturing","PM10","Miscellaneous","9.4475","2008"
"EQUILON ENTERPRISES LLC","1801 MARINA VISTA","38.0203","-122.128","424710","Petroleum Bulk Stations and Terminals","Volatile Organic Compounds","Miscellaneous","12.0937596","2008"
"VINTAGE PETROLEUM, LLC","SANDMOUND BLVD, OFF","38.0055","-121.635","211112","Natural Gas Liquid Extraction","Nitrogen Oxides","Miscellaneous","6.535","2008"
"LEO'S FINISHING AND REFINISHIN","33238 CENTRAL AVE, STE 100","37.5900","-122.039","337212","Custom Architectural Woodwork and Millwork Manufacturing","Volatile Organic Compounds","Miscellaneous","8.082689","2008"
"MAXWELL HOUSE, DIV OF KRAFT FO","100 HALCYON DRIVE","37.6999","-122.139","311920","Coffee and Tea Manufacturing","Nitrogen Oxides","Miscellaneous","5.625","2008"
"MAXWELL HOUSE, DIV OF KRAFT FO","100 HALCYON DRIVE","37.6999","-122.139","311920","Coffee and Tea Manufacturing","PM2.5 Primary (Filt + Cond","Miscellaneous","15.389779","2008"
"MAXWELL HOUSE, DIV OF KRAFT FO","100 HALCYON DRIVE","37.6999","-122.139","311920","Coffee and Tea Manufacturing","PM10","Miscellaneous","15.641488","2008"
"BYRON POWER COMPANY,C/O RIDGEW","4901 BRUNS ROAD","37.7884","-121.606","221112","Fossil Fuel Electric Power Generation","Carbon Monoxide","Electricity Generation via Combustion","5.065","2008"
"Colusa County","Unknown","39.1790","-121.993","48811","Airport Operations","Carbon Monoxide","Airport","66.9761623","2008"
"CEMEX CONSTRUCTION MATERIALS P","6527 CALAVERAS RD","37.5668","-121.866","212321","Construction Sand and Gravel Mining","PM10","Miscellaneous","5.09692","2008"
"RIDGETOP WAREHOUSE","RIDGETOP WAREHOUSE","39.2760","-122.192","311212","Rice Milling","PM10","Miscellaneous","5.45228","2008"
"CREST ENERGY, INC","5075 WESTHEIMER SUITE 760","39.1040","-121.959","213112","Support Activities for Oil and Gas Operations","Nitrogen Oxides","Miscellaneous","13.38","2008"
"CREST ENERGY, INC","5075 WESTHEIMER SUITE 760","39.1040","-121.959","213112","Support Activities for Oil and Gas Operations","Carbon Monoxide","Miscellaneous","19.62","2008"
"CONAGRA, INC","2201 E 7TH STREET","37.7730","-122.238","311211","Flour Milling","PM10","Miscellaneous","7.08296","2008"
"TRIANGLE COATINGS, INC","1930 FAIRWAY DRIVE","37.7004","-122.168","325510","Paint and Coating Manufacturing","Volatile Organic Compounds","Miscellaneous","9.6446432","2008"
"BOTTLING GROUP LLC","29000 HESPERIAN BLVD","37.6147","-122.087","221112","Fossil Fuel Electric Power Generation","Carbon Monoxide","Miscellaneous","5.421","2008"
"BOTTLING GROUP LLC","29000 HESPERIAN BLVD","37.6147","-122.087","221112","Fossil Fuel Electric Power Generation","Volatile Organic Compounds","Miscellaneous","11.6406216","2008"
"Calaveras Co-Maury Rasm","Unknown","38.1461","-120.648","48811","Airport Operations","Carbon Monoxide","Airport","59.9973","2008"
"FORD CONSTRUCTION COMPANY","3650 HOGAN DAM ROAD","38.1156","-120.801","212319","Other Crushed and Broken Stone Mining and Quarrying","Carbon Monoxide","Miscellaneous","5.8","2008"
"FORD CONSTRUCTION COMPANY","3650 HOGAN DAM ROAD","38.1156","-120.801","212319","Other Crushed and Broken Stone Mining and Quarrying","Nitrogen Oxides","Miscellaneous","27.1","2008"
"Paradise Skypark","Unknown","39.7096","-121.616","48811","Airport Operations","Carbon Monoxide","Airport","35.55514","2008"
"Oroville Muni","Unknown","39.4878","-121.622","48811","Airport Operations","Carbon Monoxide","Airport","93.20057","2008"
"CEMEX","220 BURMA RD, BERTH 7","37.8238","-122.308","327320","Ready-Mix Concrete Manufacturing","Nitrogen Oxides","Miscellaneous","12.454","2008"
"Chico Muni","Unknown","39.8033","-121.864","48811","Airport Operations","Volatile Organic Compounds","Airport","7.30966628","2008"
"Chico Muni","Unknown","39.8033","-121.864","48811","Airport Operations","Nitrogen Oxides","Airport","10.1350494","2008"
"Chico Muni","Unknown","39.8033","-121.864","48811","Airport Operations","Carbon Monoxide","Airport","170.573363","2008"
"VULCAN MATERIALS COMPANY","50 EL CHARRO ROAD","37.6738","-121.826","212321","Construction Sand and Gravel Mining","PM10","Miscellaneous","7.4716","2008"
"METROPOLITAN FURNITURE CORP","7220 EDGEWATER DR","37.7491","-122.212","337122","Nonupholstered Wood Household Furniture Manufacturing","Volatile Organic Compounds","Miscellaneous","6.6274459","2008"
"NEAL ROAD RECYCLING AND WASTE FACILITY","1023 NEAL ROAD","39.6660","-121.745","562212","Solid Waste Landfill","Nitrogen Oxides","Miscellaneous","5.03","2008"
"GALLAGHER & BURK, INC","344 HIGH STREET","37.7628","-122.222","324121","Asphalt Paving Mixture and Block Manufacturing","PM10","Miscellaneous","6.417843","2008"
"GALLAGHER & BURK, INC","344 HIGH STREET","37.7628","-122.222","324121","Asphalt Paving Mixture and Block Manufacturing","Volatile Organic Compounds","Miscellaneous","7.3248959","2008"
"GALLAGHER & BURK, INC","344 HIGH STREET","37.7628","-122.222","324121","Asphalt Paving Mixture and Block Manufacturing","Nitrogen Oxides","Miscellaneous","11.005","2008"
"GALLAGHER & BURK, INC","344 HIGH STREET","37.7628","-122.222","324121","Asphalt Paving Mixture and Block Manufacturing","Carbon Monoxide","Miscellaneous","13.807","2008"
"MCGRATH RENT CORPORATION","5700 LAS POSITAS ROAD","37.6992","-121.726","316110","Leather and Hide Tanning and Finishing","Volatile Organic Compounds","Miscellaneous","5.1796387","2008"
"EVERETT GRAPHICS","7300 EDGEWATER DR","37.7445","-122.209","323110","Commercial Lithographic Printing","Volatile Organic Compounds","Miscellaneous","6.662","2008"
"Westover Field Amador C","Unknown","38.3768","-120.794","48811","Airport Operations","Carbon Monoxide","Airport","55.6936173","2008"
"UNIVERSITY OF CALIFORNIA, BERK","OXFORD ST & UNIVERSITY AVE","37.8724","-122.267","611310","Colleges, Universities, and Professional Schools","Carbon Monoxide","Institutional - schools, hospitals, prisons","6.033","2008"
"UNIVERSITY OF CALIFORNIA, BERK","OXFORD ST & UNIVERSITY AVE","37.8724","-122.267","611310","Colleges, Universities, and Professional Schools","Nitrogen Oxides","Institutional - schools, hospitals, prisons","7.14","2008"
"ESCO INTEGRATED MANUFACTURING-","4021 PIKE LANE","38.0100","-122.029","332117","Powder Metallurgy Part Manufacturing","Volatile Organic Compounds","Miscellaneous","5.2642","2008"
"HAYWARD WASTE WATER TREATMENT","3700 ENTERPRISE AVE","37.6319","-122.125","221320","Sewage Treatment Facilities","PM2.5 Primary (Filt + Cond","Wastewater Treatment Facility","5.273385","2008"
"HAYWARD WASTE WATER TREATMENT","3700 ENTERPRISE AVE","37.6319","-122.125","221320","Sewage Treatment Facilities","PM10","Wastewater Treatment Facility","5.28405","2008"
"HAYWARD WASTE WATER TREATMENT","3700 ENTERPRISE AVE","37.6319","-122.125","221320","Sewage Treatment Facilities","Volatile Organic Compounds","Wastewater Treatment Facility","8.1908919","2008"
"HAYWARD WASTE WATER TREATMENT","3700 ENTERPRISE AVE","37.6319","-122.125","221320","Sewage Treatment Facilities","Carbon Monoxide","Wastewater Treatment Facility","12.946","2008"
"HAYWARD WASTE WATER TREATMENT","3700 ENTERPRISE AVE","37.6319","-122.125","221320","Sewage Treatment Facilities","Nitrogen Oxides","Wastewater Treatment Facility","26.35","2008"
"MULE CREEK STATE PRISON, CDC","40001 HIGHWAY 104","38.3706","-120.953","922140","Correctional Institutions","Nitrogen Oxides","Miscellaneous","16.0334058","2008"
"Metropolitan Oakland In","Unknown","37.7190","-122.241","48811","Airport Operations","PM2.5 Primary (Filt + Cond","Airport","28.0966049296","2008"
"Metropolitan Oakland In","Unknown","37.7190","-122.241","48811","Airport Operations","PM10","Airport","36.7769262296","2008"
"Metropolitan Oakland In","Unknown","37.7190","-122.241","48811","Airport Operations","Sulfur Dioxide","Airport","115.3930562429","2008"
"Metropolitan Oakland In","Unknown","37.7190","-122.241","48811","Airport Operations","Volatile Organic Compounds","Airport","220.45706311152","2008"
"Metropolitan Oakland In","Unknown","37.7190","-122.241","48811","Airport Operations","Nitrogen Oxides","Airport","1310.920268349","2008"
"Metropolitan Oakland In","Unknown","37.7190","-122.241","48811","Airport Operations","Carbon Monoxide","Airport","2333.05022925663","2008"
"Livermore Muni","Unknown","37.6934","-121.820","48811","Airport Operations","Volatile Organic Compounds","Airport","6.8915272","2008"
"Livermore Muni","Unknown","37.6934","-121.820","48811","Airport Operations","PM10","Airport","10.0300167","2008"
"Livermore Muni","Unknown","37.6934","-121.820","48811","Airport Operations","Carbon Monoxide","Airport","498.96694","2008"
"Hayward Executive","Unknown","37.6619","-122.130","48811","Airport Operations","Volatile Organic Compounds","Airport","7.54283892","2008"
"Hayward Executive","Unknown","37.6619","-122.130","48811","Airport Operations","PM10","Airport","9.32720242","2008"
"Hayward Executive","Unknown","37.6619","-122.130","48811","Airport Operations","Carbon Monoxide","Airport","452.872025","2008"
"REPUBLIC SERVICES VASCO ROAD,","4001 N VASCO ROAD","37.7105","-121.723","562211","Hazardous Waste Treatment and Disposal","Nitrogen Oxides","Miscellaneous","17.086","2008"
"REPUBLIC SERVICES VASCO ROAD,","4001 N VASCO ROAD","37.7105","-121.723","562211","Hazardous Waste Treatment and Disposal","Volatile Organic Compounds","Miscellaneous","71.4138591","2008"
"REPUBLIC SERVICES VASCO ROAD,","4001 N VASCO ROAD","37.7105","-121.723","562211","Hazardous Waste Treatment and Disposal","Carbon Monoxide","Miscellaneous","87.346","2008"
"BAYER HEALTHCARE LLC","800 DWIGHT WAY","37.8579","-122.296","325412","Pharmaceutical Preparation Manufacturing","Volatile Organic Compounds","Miscellaneous","12.256975","2008"
"BAYER HEALTHCARE LLC","800 DWIGHT WAY","37.8579","-122.296","325412","Pharmaceutical Preparation Manufacturing","Nitrogen Oxides","Miscellaneous","19.876","2008"
"PRESTIGE GUNITE BY ADAMS","8003 ATHENOUR WAY","37.5747","-121.883","238110","Poured Concrete Foundation and Structure Contractors","Nitrogen Oxides","Miscellaneous","5.188","2008"
"PRESTIGE GUNITE BY ADAMS","8003 ATHENOUR WAY","37.5747","-121.883","238110","Poured Concrete Foundation and Structure Contractors","Carbon Monoxide","Miscellaneous","6.39","2008"
"SEAGATE TECHNOLOGY, LLC","47010 KATO ROAD","37.4826","-121.931","334613","Magnetic and Optical Recording Media Manufacturing","Volatile Organic Compounds","Miscellaneous","9.9278583","2008"
"LOS GATOS TOMATO PRODUCTS","19800 GALE AVE","36.1812","-120.154","311421","Fruit and Vegetable Canning","Carbon Monoxide","Miscellaneous","13.4839","2008"
"WOOD TECH INC","4611 MALAT STREET","37.7619","-122.219","337211","Wood Office Furniture Manufacturing","Volatile Organic Compounds","Miscellaneous","8.3462284","2008"
"CALAVERAS MATERIALS INC.","12523 N HIGHWAY 59","37.4086","-120.430","324121","Asphalt Paving Mixture and Block Manufacturing","PM2.5 Primary (Filt + Cond","Hot Mix Asphalt Plant","8.836753","2008"
"CALAVERAS MATERIALS INC.","12523 N HIGHWAY 59","37.4086","-120.430","324121","Asphalt Paving Mixture and Block Manufacturing","PM10","Hot Mix Asphalt Plant","13.112596","2008"
"PE BERKELEY, INC","UNIV OF CALIF, BERKELEY CAMPUS","37.8699","-122.259","221112","Fossil Fuel Electric Power Generation","Volatile Organic Compounds","Electricity Generation via Combustion","5.1071576","2008"
"PE BERKELEY, INC","UNIV OF CALIF, BERKELEY CAMPUS","37.8699","-122.259","221112","Fossil Fuel Electric Power Generation","PM2.5 Primary (Filt + Cond","Electricity Generation via Combustion","13.011334","2008"
"PE BERKELEY, INC","UNIV OF CALIF, BERKELEY CAMPUS","37.8699","-122.259","221112","Fossil Fuel Electric Power Generation","PM10","Electricity Generation via Combustion","13.086073","2008"
"PE BERKELEY, INC","UNIV OF CALIF, BERKELEY CAMPUS","37.8699","-122.259","221112","Fossil Fuel Electric Power Generation","Nitrogen Oxides","Electricity Generation via Combustion","51.438","2008"
"PE BERKELEY, INC","UNIV OF CALIF, BERKELEY CAMPUS","37.8699","-122.259","221112","Fossil Fuel Electric Power Generation","Carbon Monoxide","Electricity Generation via Combustion","228.773","2008"
"WASTE MANAGEMENT INC","2615 DAVIS STREET","37.7146","-122.190","562211","Hazardous Waste Treatment and Disposal","Carbon Monoxide","Miscellaneous","11.947","2008"
"WASTE MANAGEMENT INC","2615 DAVIS STREET","37.7146","-122.190","562211","Hazardous Waste Treatment and Disposal","Volatile Organic Compounds","Miscellaneous","21.778016","2008"
"GEORGIA-PACIFIC CORRUGATED LLC","2800 ALVARADO STREET","37.7056","-122.152","322211","Corrugated and Solid Fiber Box Manufacturing","Nitrogen Oxides","Miscellaneous","5.784","2008"
"DAVIS STREET SMART","2615 DAVIS STREET","37.7130","-122.189","562211","Hazardous Waste Treatment and Disposal","PM2.5 Primary (Filt + Cond","Miscellaneous","11.66258","2008"
"DAVIS STREET SMART","2615 DAVIS STREET","37.7130","-122.189","562211","Hazardous Waste Treatment and Disposal","PM10","Miscellaneous","15.76837","2008"
"ORO LOMA SANITARY DISTRICT","2600 GRANT AVENUE","37.6696","-122.153","221320","Sewage Treatment Facilities","Volatile Organic Compounds","Wastewater Treatment Facility","5.6576726","2008"
"ORO LOMA SANITARY DISTRICT","2600 GRANT AVENUE","37.6696","-122.153","221320","Sewage Treatment Facilities","Nitrogen Oxides","Wastewater Treatment Facility","7.304","2008"
"ORO LOMA SANITARY DISTRICT","2600 GRANT AVENUE","37.6696","-122.153","221320","Sewage Treatment Facilities","Sulfur Dioxide","Wastewater Treatment Facility","7.373","2008"
"ORO LOMA SANITARY DISTRICT","2600 GRANT AVENUE","37.6696","-122.153","221320","Sewage Treatment Facilities","Carbon Monoxide","Wastewater Treatment Facility","20.655","2008"
"COUNTY ASPHALT","5501 IMHOFF DRIVE","37.9995","-122.063","324121","Asphalt Paving Mixture and Block Manufacturing","Nitrogen Oxides","Miscellaneous","5.038","2008"
"RIGHT AWAY REDY MIX","5501 IMHOFF DRIVE","38.0000","-122.059","327320","Ready-Mix Concrete Manufacturing","PM10","Miscellaneous","6.382432","2008"
"INTERNATIONAL INBOARD MARINE","2556 W 16TH ST","37.3005","-120.481","336612","Boat Building","Volatile Organic Compounds","Miscellaneous","6.25238","2008"
"RICHVALE","Unknown","39.4977","-121.771","48811","Airport Operations","Carbon Monoxide","Airport","19.00509","2008"
"BOHUNK'S AIRPARK","Unknown","34.6947","-118.283","48811","Airport Operations","Carbon Monoxide","Airport","5.09313","2008"
"WARD FIELD","Unknown","41.8456","-123.985","48811","Airport Operations","Carbon Monoxide","Airport","5.21609","2008"
"SELMA","Unknown","36.5808","-119.657","48811","Airport Operations","Carbon Monoxide","Airport","42.53938","2008"
"FRAZIER LAKE AIRPARK","Unknown","36.9533","-121.466","48811","Airport Operations","Carbon Monoxide","Airport","13.56178","2008"
"RIGHT AWAY REDY MIX INC","401 KENNEDY STREET","37.7720","-122.236","327320","Ready-Mix Concrete Manufacturing","PM10","Miscellaneous","7.10714","2008"
"SPAULDING","Unknown","40.6503","-120.769","48811","Airport Operations","Carbon Monoxide","Airport","7.82413","2008"
"COMMODORE CENTER","Unknown","37.8799","-122.514","48811","Airport Operations","Carbon Monoxide","Airport","6.0774","2008"
"HARRIS RANCH","Unknown","36.2481","-120.239","48811","Airport Operations","Carbon Monoxide","Airport","26.08039","2008"
"THE SEA RANCH","Unknown","38.7046","-123.433","48811","Airport Operations","Carbon Monoxide","Airport","25.52357","2008"
"ELK GROVE","Unknown","38.3924","-121.331","48811","Airport Operations","Carbon Monoxide","Airport","72.6384","2008"
"SIERRA SKY PARK","Unknown","36.8402","-119.869","48811","Airport Operations","Carbon Monoxide","Airport","32.60054","2008"
"HYAMPOM","Unknown","40.6256","-123.469","48811","Airport Operations","Carbon Monoxide","Airport","5.21609","2008"
"BERT-CO GRAPHICS, BERT-CO IND DBA","3800 N MISSION RD","34.0699","-118.200","323110","Commercial Lithographic Printing","Volatile Organic Compounds","Miscellaneous","9.543153","2008"
"APEX DRUM CO INC","6202 & 6226 FERGUSON DR","34.0090","-118.140","811310","Commercial and Industrial Machinery and Equipment (except Automotive and Electronic) Repair and Maintenance","Carbon Monoxide","Miscellaneous","5.7","2008"
"NASA JET PROPULSION LAB","4800 OAK GROVE DR","34.1900","-118.171","927110","Space Research and Technology","Nitrogen Oxides","Miscellaneous","7.379056692","2008"
"EUREKA MUNI","Unknown","40.7809","-124.212","48811","Airport Operations","Carbon Monoxide","Airport","6.52011","2008"
"REPUBLIC SERV OF CALIF LLC(CHIQUITA CAN)","29201 HENRY MAYO DR","34.4245","-118.646","562212","Solid Waste Landfill","Nitrogen Oxides","Miscellaneous","5.59","2008"
"REPUBLIC SERV OF CALIF LLC(CHIQUITA CAN)","29201 HENRY MAYO DR","34.4245","-118.646","562212","Solid Waste Landfill","Carbon Monoxide","Miscellaneous","5.98","2008"
"REPUBLIC SERV OF CALIF LLC(CHIQUITA CAN)","29201 HENRY MAYO DR","34.4245","-118.646","562212","Solid Waste Landfill","Sulfur Dioxide","Miscellaneous","8.62","2008"
"HANSON IONE","1800 HWY 104","38.3717","-120.998","212319","Other Crushed and Broken Stone Mining and Quarrying","PM10","Miscellaneous","15.00741553","2008"
"FIBREFORM WOOD PRODUCTS","11851 FIBREFORM ROAD","38.3721","-120.805","321918","Other Millwork (including Flooring)","Volatile Organic Compounds","Miscellaneous","29.0031665","2008"
"GOOSE HILL ROCK","6470 JACKSON VALLEY ROAD","38.2971","-120.907","212321","Construction Sand and Gravel Mining","PM10","Miscellaneous","8.28426","2008"
"AMADOR TRANSIT MIX - JACKSON","1001 HIGHWAY 49 SOUTH","38.3347","-120.764","327320","Ready-Mix Concrete Manufacturing","PM2.5 Primary (Filt + Cond","Concrete Batch Plant","6.8324","2008"
"AMADOR TRANSIT MIX - JACKSON","1001 HIGHWAY 49 SOUTH","38.3347","-120.764","327320","Ready-Mix Concrete Manufacturing","PM10","Concrete Batch Plant","10.1384","2008"
"UNIMIN (OWENS-ILLINOIS)","8625 HWY 124","38.3360","-120.946","212322","Industrial Sand Mining","Nitrogen Oxides","Miscellaneous","9.27","2008"
"UNIMIN (OWENS-ILLINOIS)","8625 HWY 124","38.3360","-120.946","212322","Industrial Sand Mining","PM2.5 Primary (Filt + Cond","Miscellaneous","10.436805","2008"
"UNIMIN (OWENS-ILLINOIS)","8625 HWY 124","38.3360","-120.946","212322","Industrial Sand Mining","PM10","Miscellaneous","63.758","2008"
"BERRY PETROLEUM COMPANY","25121 N SIERRA HWY","34.3866","-118.491","211111","Crude Petroleum and Natural Gas Extraction","PM2.5 Primary (Filt + Cond","Miscellaneous","8.2252","2008"
"BERRY PETROLEUM COMPANY","25121 N SIERRA HWY","34.3866","-118.491","211111","Crude Petroleum and Natural Gas Extraction","PM10","Miscellaneous","8.2314","2008"
"BERRY PETROLEUM COMPANY","25121 N SIERRA HWY","34.3866","-118.491","211111","Crude Petroleum and Natural Gas Extraction","Carbon Monoxide","Miscellaneous","28.2","2008"
"BERRY PETROLEUM COMPANY","25121 N SIERRA HWY","34.3866","-118.491","211111","Crude Petroleum and Natural Gas Extraction","Ammonia","Miscellaneous","45.12831","2008"
"BERRY PETROLEUM COMPANY","25121 N SIERRA HWY","34.3866","-118.491","211111","Crude Petroleum and Natural Gas Extraction","Nitrogen Oxides","Miscellaneous","65.46","2008"
"BERRY PETROLEUM COMPANY","25121 N SIERRA HWY","34.3866","-118.491","211111","Crude Petroleum and Natural Gas Extraction","Volatile Organic Compounds","Miscellaneous","83.531442954","2008"
"MONTAGUE-YREKA ROHRER FIELD","Unknown","41.7304","-122.546","48811","Airport Operations","Carbon Monoxide","Airport","14.21122","2008"
"VINTAGE PETROLEUM (SAGE)","SAGE","39.8122","-122.213","211111","Crude Petroleum and Natural Gas Extraction","Nitrogen Oxides","Miscellaneous","6.37","2008"
"VINTAGE PETROLEUM (T-G 28-1)","TAYLOR-GLOVER 28-1","39.8256","-122.094","211111","Crude Petroleum and Natural Gas Extraction","Nitrogen Oxides","Miscellaneous","6.78","2008"
"VINTAGE PETROLEUM (TOLLE 27-1)","TOLLE 27-1","39.8206","-122.179","211111","Crude Petroleum and Natural Gas Extraction","Nitrogen Oxides","Miscellaneous","7.345","2008"
"VINTAGE PETROLEUM (MALTON 6-1)","MALTON 6-1","39.8020","-122.229","211111","Crude Petroleum and Natural Gas Extraction","Nitrogen Oxides","Miscellaneous","10.75","2008"
"ATLANTIC OIL COMPANY","HOUGHTON 1-23","39.8263","-122.279","211111","Crude Petroleum and Natural Gas Extraction","Nitrogen Oxides","Miscellaneous","5.05","2008"
"SONOMA VALLEY","Unknown","38.2239","-122.450","48811","Airport Operations","Carbon Monoxide","Airport","27.09162","2008"
"SONOMA SKYPARK","Unknown","38.2574","-122.434","48811","Airport Operations","Carbon Monoxide","Airport","23.30243","2008"
"CONOVER AIR LODGE","Unknown","34.7611","-119.059","48811","Airport Operations","Carbon Monoxide","Airport","7.6770000000001","2008"
"PACIFIC RECOVERY CORP","350 CRAZY HORSE CANYON ROAD","36.7997","-121.619","221111","Hydroelectric Power Generation","Nitrogen Oxides","Miscellaneous","27.3","2008"
"PACIFIC RECOVERY CORP","350 CRAZY HORSE CANYON ROAD","36.7997","-121.619","221111","Hydroelectric Power Generation","Carbon Monoxide","Miscellaneous","90.6","2008"
"CONSTELLATION WINE","800 SOUTH ALTA STREET","36.5013","-121.434","312130","Wineries","Volatile Organic Compounds","Miscellaneous","22.48366734","2008"
"VERNON CITY, LIGHT & POWER DEPT","4990 SEVILLE AVE","33.9983","-118.223","221112","Fossil Fuel Electric Power Generation","Volatile Organic Compounds","Electricity Generation via Combustion","5.5743875","2008"
"VERNON CITY, LIGHT & POWER DEPT","4990 SEVILLE AVE","33.9983","-118.223","221112","Fossil Fuel Electric Power Generation","Carbon Monoxide","Electricity Generation via Combustion","11.3078273","2008"
"VERNON CITY, LIGHT & POWER DEPT","4990 SEVILLE AVE","33.9983","-118.223","221112","Fossil Fuel Electric Power Generation","Ammonia","Electricity Generation via Combustion","22.589335","2008"
"VERNON CITY, LIGHT & POWER DEPT","4990 SEVILLE AVE","33.9983","-118.223","221112","Fossil Fuel Electric Power Generation","PM2.5 Primary (Filt + Cond","Electricity Generation via Combustion","24.94229074","2008"
"VERNON CITY, LIGHT & POWER DEPT","4990 SEVILLE AVE","33.9983","-118.223","221112","Fossil Fuel Electric Power Generation","PM10","Electricity Generation via Combustion","25.22976286","2008"
"VERNON CITY, LIGHT & POWER DEPT","4990 SEVILLE AVE","33.9983","-118.223","221112","Fossil Fuel Electric Power Generation","Nitrogen Oxides","Electricity Generation via Combustion","25.87757758","2008"
"SONOCO PRODUCTS CO","166 N BALDWIN PARK BLVD","34.0521","-117.998","322130","Paperboard Mills","Carbon Monoxide","Pulp and Paper Plant","7.06","2008"
"U S GOV'T, V A MEDICAL CENTER, WEST L A","11301 WILSHIRE BLVD","34.0520","-118.459","621491","HMO Medical Centers","Volatile Organic Compounds","Miscellaneous","8.60065412","2008"
"U S GOV'T, V A MEDICAL CENTER, WEST L A","11301 WILSHIRE BLVD","34.0520","-118.459","621491","HMO Medical Centers","Carbon Monoxide","Miscellaneous","15.08585","2008"
"U S GOV'T, V A MEDICAL CENTER, WEST L A","11301 WILSHIRE BLVD","34.0520","-118.459","621491","HMO Medical Centers","Nitrogen Oxides","Miscellaneous","20.52","2008"
"CARL'S READY MIX","340 STANDARD AVENUE","38.5237","-122.794","423320","Brick, Stone, and Related Construction Material Merchant Wholesalers","PM10","Miscellaneous","6.88528","2008"
"LAKE WOHLFORD RESORT","Unknown","33.1861","-117.002","48811","Airport Operations","Carbon Monoxide","Airport","12.76181","2008"
"SENECA RESOURCES","SESPE FIELD LEASES","34.4863","-118.888","211111","Crude Petroleum and Natural Gas Extraction","Volatile Organic Compounds","Oil or Gas Field (On-shore)","20.511359","2008"
"LA CONCHITA OIL & GAS PLANT","7459 W. PACIFIC COAST HIGHWAY","34.3708","-119.454","211111","Crude Petroleum and Natural Gas Extraction","Carbon Monoxide","Oil or Gas Field (On-shore)","16.97455","2008"
"INDALEX WEST INC","18111 E RAILROAD ST","33.9970","-117.910","331316","Aluminum Extruded Product Manufacturing","PM2.5 Primary (Filt + Cond","Miscellaneous","5.10787230745","2008"
"INDALEX WEST INC","18111 E RAILROAD ST","33.9970","-117.910","331316","Aluminum Extruded Product Manufacturing","PM10","Miscellaneous","7.4687205508","2008"
"INDALEX WEST INC","18111 E RAILROAD ST","33.9970","-117.910","331316","Aluminum Extruded Product Manufacturing","Nitrogen Oxides","Miscellaneous","15.01","2008"
"AMERICH CORP","13152 SATICOY","34.2076","-118.420","339113","Surgical Appliance and Supplies Manufacturing","Volatile Organic Compounds","Miscellaneous","8.52","2008"
"PINE CREEK ROCK","515 RONEY TRAIL","33.3706","-115.642","212321","Construction Sand and Gravel Mining","Nitrogen Oxides","Miscellaneous","9.43","2008"
"INSULFOAM LLC","1155 BUSINESS PARK DRIVE","38.4567","-121.817","326140","Polystyrene Foam Product Manufacturing","Carbon Monoxide","Miscellaneous","5.01","2008"
"INSULFOAM LLC","1155 BUSINESS PARK DRIVE","38.4567","-121.817","326140","Polystyrene Foam Product Manufacturing","Volatile Organic Compounds","Miscellaneous","76.5","2008"
"EL MIRAGE FIELD ADELANTO","Unknown","34.6250","-117.605","48811","Airport Operations","Carbon Monoxide","Airport","7.99972","2008"
"FORTUNE FASHIONS IND","4700 S BOYLE AVE","34.0024","-118.214","315999","Other Apparel Accessories and Other Apparel Manufacturing","Volatile Organic Compounds","Miscellaneous","17.01320995","2008"
"CERRITOS CITY, WATER DIV","16540 MARQUARDT AVE","33.8816","-118.039","921190","Other General Government Support","Carbon Monoxide","Miscellaneous","27.65","2008"
"CLOVER FLAT LANDFILL INC","4380 SILVERADO TRAIL","38.5902","-122.534","562211","Hazardous Waste Treatment and Disposal","Nitrogen Oxides","Miscellaneous","5.976","2008"
"CLOVER FLAT LANDFILL INC","4380 SILVERADO TRAIL","38.5902","-122.534","562211","Hazardous Waste Treatment and Disposal","PM2.5 Primary (Filt + Cond","Miscellaneous","8.210492","2008"
"CLOVER FLAT LANDFILL INC","4380 SILVERADO TRAIL","38.5902","-122.534","562211","Hazardous Waste Treatment and Disposal","PM10","Miscellaneous","8.303116","2008"
"CLOVER FLAT LANDFILL INC","4380 SILVERADO TRAIL","38.5902","-122.534","562211","Hazardous Waste Treatment and Disposal","Volatile Organic Compounds","Miscellaneous","15.7538247","2008"
"CLOVER FLAT LANDFILL INC","4380 SILVERADO TRAIL","38.5902","-122.534","562211","Hazardous Waste Treatment and Disposal","Carbon Monoxide","Miscellaneous","15.899","2008"
"GAS RECOVERY SYSTEMS, INC","LANDFILL","38.1806","-122.275","221112","Fossil Fuel Electric Power Generation","Volatile Organic Compounds","Electricity Generation via Combustion","8.57268","2008"
"GAS RECOVERY SYSTEMS, INC","LANDFILL","38.1806","-122.275","221112","Fossil Fuel Electric Power Generation","Nitrogen Oxides","Electricity Generation via Combustion","24.517","2008"
"GAS RECOVERY SYSTEMS, INC","LANDFILL","38.1806","-122.275","221112","Fossil Fuel Electric Power Generation","Carbon Monoxide","Electricity Generation via Combustion","57.177","2008"
"AMCAN BEVERAGES, INC","1201 COMMERCE BOULEVARD","38.1904","-122.274","312111","Soft Drink Manufacturing","Nitrogen Oxides","Miscellaneous","7.908","2008"
"SENECA RESOURCES CORP.","ROSSI LEASE - SESPE FIELD","34.4705","-118.863","211111","Crude Petroleum and Natural Gas Extraction","Volatile Organic Compounds","Oil or Gas Field (On-shore)","11.0587498","2008"
"PACIFIC CUSTOM MATERIALS, INC","17410 E LOCKWOOD VALLEY RD","34.7777","-119.047","327123","Other Structural Clay Product Manufacturing","PM2.5 Primary (Filt + Cond","Miscellaneous","10.72974926275","2008"
